faa,name,lon,lat,tzone
04G,Lansdowne Airport,-80.6195833,41.1304722,America/New_York
06A,Moton Field Municipal Airport,-85.6800278,32.4605722,America/Chicago
06C,Schaumburg Regional,-88.1012428,41.9893408,America/Chicago
06N,Randall Airport,-74.3915611,41.431912,America/New_York
09J,Jekyll Island Airport,-81.4277778,31.0744722,America/New_York
0A9,Elizabethton Municipal Airport,-82.1734167,36.3712222,America/New_York
0G6,Williams County Airport,-84.5067778,41.4673056,America/New_York
0G7,Finger Lakes Regional Airport,-76.7812318,42.8835647,America/New_York
0P2,Shoestring Aviation Airfield,-76.6471914,39.7948244,America/New_York
0S9,Jefferson County Intl,-122.8106436,48.053808600000004,America/Los_Angeles
0W3,Harford County Airport,-76.2024028,39.5668378,America/New_York
10C,Galt Field Airport,-88.3751111,42.4028889,America/Chicago
17G,Port Bucyrus-Crawford County Airport,-82.9748056,40.7815556,America/New_York
19A,Jackson County Airport,-83.5615972,34.1758638,America/New_York
1A3,Martin Campbell Field Airport,-84.3468333,35.0158056,America/New_York
1B9,Mansfield Municipal,-71.1967714,42.0001331,America/New_York
1C9,Frazier Lake Airpark,-124.76833333333333,54.013333333333335,America/Vancouver
1CS,Clow International Airport,-88.1292306,41.6959744,America/Chicago
1G3,Kent State Airport,-81.4151111,41.1513889,America/New_York
1G4,Grand Canyon West Airport,-113.815674,35.899904,America/Phoenix
1H2,Effingham Memorial Airport,-88.534,39.07,America/Chicago
1OH,Fortman Airport,-84.3866186,40.5553253,America/New_York
1RL,Point Roberts Airpark,-123.0788889,48.9797222,America/Los_Angeles
23M,Clarke CO,-88.4434,32.0517,America/Chicago
24C,Lowell City Airport,-85.3439058,42.95392,America/New_York
24J,Suwannee County Airport,-83.0246944,30.300125,America/New_York
25D,Forest Lake Airport,-92.9943853,45.2477456,America/Chicago
29D,Grove City Airport,-80.16775,41.1460278,America/New_York
2A0,Mark Anton Airport,-84.9310833,35.48625,America/New_York
2B2,Plum Island Airport,-70.8394444,42.7953611,America/New_York
2G2,Jefferson County Airpark,-80.7008742,40.3602179,America/New_York
2G9,Somerset County Airport,-79.0149951,40.0388708,America/New_York
2H0,Shelby County Airport,-88.845556,39.410556,America/Chicago
2J9,Quincy Municipal Airport,-84.557425,30.5978708,America/New_York
369,Atmautluak Airport,-162.273056,60.866667,America/Anchorage
36U,Heber City Municipal Airport,-111.4288056,40.4818056,America/Denver
38W,Lynden Airport,-122.4581183,48.9558961,America/Los_Angeles
3D2,Ephraim-Gibraltar Airport,-87.1879444,45.1354167,America/Chicago
3G3,Wadsworth Municipal,-81.7564401,41.0031572,America/New_York
3G4,Ashland County Airport,-82.2556389,40.9029722,America/New_York
3J1,Ridgeland Airport,-80.99175,32.4934167,America/New_York
3W2,Put-in-Bay Airport,-82.497,41.3521,America/New_York
40J,Perry-Foley Airport,-83.5805833,30.0692778,America/New_York
41N,Braceville Airport,-80.9692572,41.2111675,America/New_York
47A,Cherokee County Airport,-84.4221556,34.3122175,America/New_York
49A,Gilmer County Airport,-84.5265833,34.6282222,America/New_York
49X,Chemehuevi Valley,-114.431971,34.528889,America/Los_Angeles
4A4,Polk County Airport - Cornelius Moore Field,-85.1464722,34.0186944,America/New_York
4A7,Clayton County Tara Field,-84.332397,33.389099,America/New_York
4A9,Isbell Field Airport,-85.7213889,34.4736944,America/Chicago
4B8,Robertson Field,-72.8646944,41.6893333,America/New_York
4G0,Pittsburgh-Monroeville Airport,-79.7749167,40.4526389,America/New_York
4G2,Hamburg Inc Airport,-78.9147569,42.7008925,America/New_York
4G4,Youngstown Elser Metro Airport,-80.6773264,40.9617953,America/New_York
4I7,Putnam County Airport,-86.8138056,39.6335556,America/New_York
4U9,Dell Flight Strip,-112.7200133,44.7357483,America/Denver
52A,Madison GA Municipal Airport,-83.4604444,33.612125,America/New_York
54J,DeFuniak Springs Airport,-86.1537778,30.7311111,America/Chicago
55J,Fernandina Beach Municipal Airport,-81.4611944,30.6118333,America/New_York
55S,Packwood,-121.4067,46.3625,America/Los_Angeles
57C,East Troy Municipal Airport,-88.3726111,42.7971667,America/Chicago
5B2,Saratoga County Airport,-73.861638,43.050722,America/New_York
60J,Ocean Isle Beach Airport,-78.4366722,33.9085056,America/New_York
6A2,Griffin-Spalding County Airport,-84.2749444,33.2269722,America/New_York
6J4,Saluda County,-81.4768,33.5561,America/New_York
6K8,Tok Junction Airport,-142.953611,63.329444,America/Anchorage
6S0,Big Timber Airport,-109.9811111,45.8063889,America/Denver
6S2,Florence,-124.1113687,43.9828168,America/Los_Angeles
6Y8,Welke Airport,-85.520278,45.721111,America/New_York
70J,Cairo-Grady County Airport,-84.1547353,30.8879767,America/New_York
70N,Spring Hill Airport,-75.4158972,41.3473569,America/New_York
7A4,Foster Field,-90.1693889,42.4664444,America/Chicago
7D9,Germack Airport,-80.9039797,41.7778322,America/New_York
7N7,Spitfire Aerodrome,-75.3977211,39.7355633,America/New_York
8M8,Garland Airport,-84.2761944,44.8065278,America/New_York
93C,Richland Airport,-90.2982819,43.2833575,America/Chicago
99N,Bamberg County Airport,-81.1084167,33.3045278,America/New_York
9A1,Covington Municipal Airport,-83.8474472,33.6323083,America/New_York
9A5,Barwick Lafayette Airport,-85.2903319,34.6884792,America/New_York
9G1,Rock Airport,-79.8261189,40.6035463,America/New_York
A39,Phoenix Regional Airport,-111.920997619629,32.99169921875,America/Phoenix
A50,Colorado Springs East,-104.41,38.87,America/Denver
AAF,Apalachicola Regional Airport,-85.0274416,29.7276066,America/New_York
AAP,Andrau Airport,-95.35,29.43,America/Chicago
ABE,Lehigh Valley Intl,-75.440806,40.652083,America/New_York
ABI,Abilene Rgnl,-99.681897,32.411319,America/Chicago
ABL,Ambler Airport,-157.8575,67.106389,America/Anchorage
ABQ,Albuquerque International Sunport,-106.6091944,35.0402222,America/Denver
ABR,Aberdeen Regional Airport,-98.4218,45.4491,America/Chicago
ABY,Southwest Georgia Regional Airport,-84.1945,31.5355,America/New_York
ACJ,Jimmy Carter Regional,-84.1133,32.0665,America/New_York
ACK,Nantucket Mem,-70.060181,41.253053,America/New_York
ACT,Waco Rgnl,-97.230519,31.611289,America/Chicago
ACV,Arcata,-124.108611,40.978111,America/Los_Angeles
ACY,Atlantic City Intl,-74.577167,39.457583,America/New_York
ADK,Adak Airport,-176.646,51.878,America/Anchorage
ADM,Ardmore Muni,-97.008889,34.300833,America/Chicago
ADQ,Kodiak,-152.493856,57.749967,America/Anchorage
ADS,Addison,-96.8364478,32.9685594,America/Chicago
ADW,Andrews Afb,-76.867028,38.810806,America/New_York
AET,Allakaket Airport,-152.6222,66.5519,America/Anchorage
AEX,Alexandria Intl,-92.549833,31.3274,America/Chicago
AFE,Kake Airport,-133.910278,56.961389,America/Anchorage
AFW,Fort Worth Alliance Airport,-97.318889,32.987778,America/Chicago
AGC,Allegheny County Airport,-79.9302,40.3544,America/New_York
AGN,Angoon Seaplane Base,-134.585,57.503611,America/Anchorage
AGS,Augusta Rgnl At Bush Fld,-81.9645,33.369944,America/New_York
AHN,Athens Ben Epps Airport,-83.3263,33.9486,America/New_York
AIA,Alliance Municipal Airport,-102.803889,42.053333,America/Denver
AIK,Municipal Airport,-81.6850278,33.6493889,America/New_York
AIN,Wainwright Airport,-159.994722,70.638056,America/Anchorage
AIZ,Lee C Fine Memorial Airport,-92.5494875,38.096035,America/Chicago
AKB,Atka Airport,-174.206389,52.220278,America/Anchorage
AKC,Akron Fulton Intl,-81.466917,41.0375,America/New_York
AKI,Akiak Airport,-161.230556,60.902778,America/Anchorage
AKK,Akhiok Airport,-154.1825,56.938611,America/Anchorage
AKN,King Salmon,-156.649278,58.676778,America/Anchorage
AKP,Anaktuvuk Pass Airport,-151.743,68.1336,America/Anchorage
ALB,Albany Intl,-73.801692,42.748267,America/New_York
ALI,Alice Intl,-98.026944,27.740889,America/Chicago
ALM,Alamogordo White Sands Regional Airport,-105.991,32.8399,America/Denver
ALO,Waterloo Regional Airport,-92.4003,42.5571,America/Chicago
ALS,San Luis Valley Regional Airport,-105.866667,37.435,America/Denver
ALW,Walla Walla Regional Airport,-118.288,46.0949,America/Los_Angeles
ALX,Alexandria,-77.0621,38.806346,America/New_York
ALZ,Alitak Seaplane Base,-154.247778,56.899444,America/Anchorage
AMA,Rick Husband Amarillo Intl,-101.705931,35.219369,America/Chicago
ANB,Anniston Metro,-85.858111,33.588167,America/Chicago
ANC,Ted Stevens Anchorage Intl,-149.996361,61.174361,America/Anchorage
AND,Anderson Rgnl,-82.709389,34.494583,America/New_York
ANI,Aniak Airport,-159.543,61.5816,America/Anchorage
ANN,Annette Island,-131.572233,55.042436,America/Anchorage
ANP,Lee Airport,-76.568333,38.942778,America/New_York
ANQ,Tri-State Steuben County Airport,-85.0834933,41.6396983,America/New_York
ANV,Anvik Airport,-160.191,62.6467,America/Anchorage
AOH,Lima Allen County Airport,-84.0270781,40.707478,America/New_York
AOO,Altoona Blair Co,-78.320022,40.296372,America/New_York
AOS,Amook Bay Seaplane Base,-153.815278,57.471389,America/Anchorage
APA,Centennial,-104.849294,39.570129,America/Denver
APC,Napa County Airport,-122.2806944,38.2131944,America/Los_Angeles
APF,Naples Muni,-81.775294,26.152619,America/New_York
APG,Phillips Aaf,-76.168808,39.466219,America/New_York
APN,Alpena County Regional Airport,-83.5603,45.0781,America/New_York
AQC,Klawock Seaplane Base,-133.101693,55.554658,America/Anchorage
ARA,Acadiana Rgnl,-91.883896,30.037758,America/Chicago
ARB,Ann Arbor Municipal Airport,-83.444418,42.132274,America/New_York
ARC,Arctic Village Airport,-145.579,68.1147,America/Anchorage
ART,Watertown Intl,-76.021739,43.991922,America/New_York
ARV,Lakeland,-89.730833,45.927778000000004,America/Chicago
ASE,Aspen Pitkin County Sardy Field,-106.869,39.2232,America/Denver
ASH,Boire Field Airport,-71.5147778,42.78175,America/New_York
AST,Astoria Regional Airport,-123.878694,46.157972,America/Los_Angeles
ATK,Atqasuk Edward Burnell Sr Memorial Airport,-157.436,70.4673,America/Anchorage
ATL,Hartsfield Jackson Atlanta Intl,-84.428067,33.636719,America/New_York
ATT,Camp Mabry Austin City,-97.7666,30.31666,America/Chicago
ATW,Appleton,-88.507576,44.257526,America/Chicago
ATY,Watertown Regional Airport,-97.1547,44.914,America/Chicago
AUG,Augusta State,-69.797317,44.320647,America/New_York
AUK,Alakanuk Airport,-164.66,62.68,America/Anchorage
AUO,Auburn University Regional,-85.2604,32.3691,America/Chicago
AUS,Austin Bergstrom Intl,-97.669889,30.194528,America/Chicago
AUW,Wausau Downtown Airport,-89.6270018,44.9262845,America/Chicago
AVL,Asheville Regional Airport,-82.541806,35.436194,America/New_York
AVO,Executive,-81.528889,27.591389,America/New_York
AVP,Wilkes Barre Scranton Intl,-75.723403,41.338478,America/New_York
AVW,Marana Regional,-111.218388,32.409556,America/Phoenix
AVX,Avalon,-118.415833,33.405,America/Los_Angeles
AZA,Phoenix-Mesa Gateway,-111.655,33.307833,America/Phoenix
AZO,Kalamazoo,-85.552058,42.234875,America/New_York
BAB,Beale Afb,-121.436567,39.136089,America/Los_Angeles
BAD,Barksdale Afb,-93.662674,32.50182,America/Chicago
BAF,Barnes Municipal,-72.715875,42.1579472,America/New_York
BBX,Wings Field,-75.265,40.1375,America/New_York
BCE,Bryce Canyon,-112.145806,37.706444,America/Denver
BCT,Boca Raton,-80.107694,26.3785,America/New_York
BDE,Baudette Intl,-94.612222,48.728444,America/Chicago
BDL,Bradley Intl,-72.683222,41.938889,America/New_York
BDR,Igor I Sikorsky Mem,-73.126167,41.163472,America/New_York
BEC,Beech Factory Airport,-97.2149167,37.6939167,America/Chicago
BED,Laurence G Hanscom Fld,-71.289031,42.469953,America/New_York
BEH,Southwest Michigan Regional Airport,-86.4285,42.1285833,America/New_York
BET,Bethel,-161.838,60.779778,America/Anchorage
BFD,Bradford Regional Airport,-78.6401,41.8031,America/New_York
BFF,Western Nebraska Regional Airport,-103.596,41.874,America/Denver
BFI,Boeing Fld King Co Intl,-122.301947,47.53,America/Los_Angeles
BFL,Meadows Fld,-119.05677,35.433598,America/Los_Angeles
BFM,Mobile Downtown,-88.068092,30.626783,America/Chicago
BFP,Beaver Falls,-80.3914444,40.7724722,America/New_York
BFT,Beaufort,-80.723161,32.477411,America/New_York
BGE,Decatur County Industrial Air Park,-84.6369278,30.9715981,America/New_York
BGM,Greater Binghamton Edwin A Link Fld,-75.979839,42.208689,America/New_York
BGR,Bangor Intl,-68.828139,44.807444,America/New_York
BHB,Hancock County - Bar Harbor,-68.3615653,44.4497689,America/New_York
BHM,Birmingham Intl,-86.75355,33.562942,America/Chicago
BID,Block Island State Airport,-71.577778,41.168056,America/New_York
BIF,Biggs Aaf,-106.380039,31.849528,America/Denver
BIG,Allen Aaf,-145.721642,63.994547,America/Anchorage
BIL,Billings Logan International Airport,-108.537654,45.80921,America/Denver
BIS,Bismarck Municipal Airport,-100.757931,46.775842,America/Chicago
BIV,Tulip City Airport,-86.1078333,42.7427778,America/New_York
BIX,Keesler Afb,-88.924433,30.410425,America/Chicago
BJC,Rocky Mountain Metropolitan Airport,-105.11722222,39.90888888,America/Denver
BJI,Bemidji Regional Airport,-94.934722,47.510722,America/Chicago
BKC,Buckland Airport,-161.149167,65.981667,America/Anchorage
BKD,Stephens Co,-98.891,32.719047,America/Chicago
BKF,Buckley Afb,-104.75166,39.701668,America/Denver
BKG,Branson LLC,-93.200556,36.531994,America/Chicago
BKH,Barking Sands Pmrf,-159.785,22.022833,Pacific/Honolulu
BKL,Burke Lakefront Airport,-81.683333,41.5175,America/New_York
BKW,Raleigh County Memorial Airport,-81.1242,37.7873,America/New_York
BKX,Brookings Regional Airport,-96.8169,44.3048,America/Chicago
BLD,Boulder City Municipal Airport,-114.514,35.5651,America/Phoenix
BLF,Mercer County Airport,-81.2077,37.2958,America/New_York
BLH,Blythe Airport,-114.716889,33.619167,America/Los_Angeles
BLI,Bellingham Intl,-122.537528,48.792694,America/Los_Angeles
BLV,Scott Afb Midamerica,-89.835183,38.545178,America/Chicago
BMC,Brigham City,-112.062,41.552,America/Denver
BMG,Monroe County Airport,-86.6166805,39.1460208,America/New_York
BMI,Central Illinois Rgnl,-88.915917,40.477111,America/Chicago
BMT,Beaumont Municipal,-94.2150967,30.0702044,America/Chicago
BMX,Big Mountain Afs,-155.258822,59.361247,America/Anchorage
BNA,Nashville Intl,-86.678194,36.124472,America/Chicago
BOI,Boise Air Terminal,-116.222861,43.564361,America/Denver
BOS,General Edward Lawrence Logan Intl,-71.005181,42.364347,America/New_York
BOW,Bartow Municipal Airport,-81.7834,27.9434,America/New_York
BPT,Southeast Texas Rgnl,-94.020694,29.950833,America/Chicago
BQK,Brunswick Golden Isles Airport,-81.4665,31.2588,America/New_York
BRD,Brainerd Lakes Rgnl,-94.138078,46.398308,America/Chicago
BRL,Southeast Iowa Regional Airport,-91.1255,40.7832,America/Chicago
BRO,Brownsville South Padre Island Intl,-97.425861,25.906833,America/Chicago
BRW,Wiley Post Will Rogers Mem,-156.766003,71.285446,America/Anchorage
BSF,Bradshaw Aaf,-155.553717,19.760056,Pacific/Honolulu
BTI,Barter Island Lrrs,-143.581867,70.133989,America/Anchorage
BTM,Bert Mooney Airport,-112.497472,45.954806,America/Denver
BTR,Baton Rouge Metro Ryan Fld,-91.149639,30.533167,America/Chicago
BTT,Bettles,-151.529056,66.913944,America/Anchorage
BTV,Burlington Intl,-73.153278,44.471861,America/New_York
BUF,Buffalo Niagara Intl,-78.732167,42.940525,America/New_York
BUR,Bob Hope,-118.358667,34.200667,America/Los_Angeles
BUU,Municipal Airport,-88.3046825,42.6907171,America/Chicago
BUY,Burlington-Alamance Regional Airport,-79.4748892,36.0485433,America/New_York
BVY,Beverly Municipal Airport,-70.9161444,42.584141,America/New_York
BWD,KBWD,-98.9565,31.7936111,America/Chicago
BWG,Bowling Green-Warren County Regional Airport,-86.4196667,36.9645278,America/Chicago
BWI,Baltimore Washington Intl,-76.668333,39.175361,America/New_York
BXK,Buckeye Municipal Airport,-112.68618,33.420417,America/Phoenix
BXS,Borrego Valley Airport,-116.3209722,33.2590278,America/Los_Angeles
BYH,Arkansas Intl,-89.943956,35.964347,America/Chicago
BYS,Bicycle Lake Aaf,-116.630031,35.280531,America/Los_Angeles
BYW,Blakely Island Airport,-122.80243,48.56025,America/Los_Angeles
BZN,Gallatin Field,-111.160151,45.777643,America/Denver
C02,Grand Geneva Resort Airport,-88.3895833,42.6149167,America/Chicago
C16,Frasca Field,-88.200197,40.144979,America/Chicago
C47,Portage Municipal Airport,-89.4828607,43.5603136,America/Chicago
C65,Plymouth Municipal Airport,-86.3002574,41.3651307,America/New_York
C89,Sylvania Airport,-87.9589722,42.70325,America/Chicago
C91,Dowagiac Municipal Airport,-86.1280125,41.9929342,America/New_York
CAE,Columbia Metropolitan,-81.119528,33.938833,America/New_York
CAK,Akron Canton Regional Airport,-81.4421944,40.9160833,America/New_York
CAR,Caribou Muni,-68.017917,46.8715,America/New_York
CBE,Greater Cumberland Rgnl.,-78.760556,39.615278000000004,America/New_York
CBM,Columbus Afb,-88.443833,33.643833,America/Chicago
CCO,Coweta County Airport,-84.7697554,33.3115656,America/New_York
CCR,Buchanan Field Airport,-122.0568889,37.9896667,America/Los_Angeles
CDB,Cold Bay,-162.725436,55.206061,America/Anchorage
CDC,Cedar City Rgnl,-113.098847,37.700967,America/Denver
CDI,Cambridge Municipal Airport,-81.5775833,39.9750278,America/New_York
CDK,CedarKey,-83.0504722,29.1342222,America/New_York
CDN,Woodward Field,-80.5648611,34.2835833,America/New_York
CDR,Chadron Municipal Airport,-103.095556,42.8375,America/Denver
CDS,Childress Muni,-100.287992,34.433781,America/Chicago
CDV,Merle K Mudhole Smith,-145.477556,60.491778,America/Anchorage
CDW,Caldwell Essex County Airport,-74.2813611,40.8752222,America/New_York
CEC,Del Norte County Airport,-124.237,41.7802,America/Los_Angeles
CEF,Westover Arb Metropolitan,-72.534783,42.194014,America/New_York
CEM,Central Airport,-144.780833,65.573889,America/Anchorage
CEU,Clemson,-82.8858889,34.6722222,America/New_York
CEW,Bob Sikes,-86.522111,30.778833,America/Chicago
CEZ,Cortez Muni,-108.628056,37.303,America/Denver
CFD,Coulter Fld,-96.331361,30.715694,America/Chicago
CGA,Craig Seaplane Base,-133.147778,55.478889,America/Anchorage
CGC,Crystal River,-82.5741111,28.8676111,America/New_York
CGF,Cuyahoga County,-81.4863555,41.565124,America/New_York
CGI,Cape Girardeau Regional Airport,-89.5708,37.2253,America/Chicago
CGX,Meigs Field,-87.609722,41.860278,America/Chicago
CGZ,Casa Grande Municipal Airport,-111.766832,32.954889,America/Phoenix
CHA,Lovell Fld,-85.203808,35.035278,America/New_York
CHI,All Airports,-87.631667,41.883611,America/Chicago
CHO,Charlottesville-Albemarle,-78.452861,38.138639,America/New_York
CHS,Charleston Afb Intl,-80.040528,32.898647,America/New_York
CHU,Chuathbaluk Airport,-159.215556,61.579167,America/Anchorage
CIC,Chico Muni,-121.858422,39.795383,America/Los_Angeles
CID,Cedar Rapids,-91.710806,41.884694,America/Chicago
CIK,Chalkyitsik Airport,-143.74,66.645,America/Anchorage
CIL,Council Airport,-163.703333,64.897778,America/Anchorage
CIU,Chippewa County International Airport,-84.4724,46.2508,America/New_York
CKB,Harrison Marion Regional Airport,-80.2281,39.2966,America/New_York
CKD,Crooked Creek Airport,-158.135,61.867778,America/Anchorage
CKF,Crisp County Cordele Airport,-83.7739167,31.9888333,America/New_York
CKV,Clarksville-Montgomery County Regional Airport,-87.415,36.621944,America/Chicago
CLC,Clear Lake Metroport,-95.137497,29.5569,America/Chicago
CLD,McClellan-Palomar Airport,-117.1648,33.0742,America/Los_Angeles
CLE,Cleveland Hopkins Intl,-81.849794,41.411689,America/New_York
CLL,Easterwood Fld,-96.363833,30.588583,America/Chicago
CLM,William R Fairchild International Airport,-123.5,48.1202,America/Los_Angeles
CLS,Chehalis-Centralia,-122.5897,46.4062,America/Los_Angeles
CLT,Charlotte Douglas Intl,-80.943139,35.214,America/New_York
CLW,Clearwater Air Park,-82.7586667,27.9764722,America/New_York
CMH,Port Columbus Intl,-82.891889,39.997972,America/New_York
CMI,Champaign,-88.278056,40.03925,America/Chicago
CMX,Houghton County Memorial Airport,-88.4891,47.1684,America/New_York
CNM,Cavern City Air Terminal,-104.263278,32.337472,America/Denver
CNW,Tstc Waco,-97.074139,31.637831,America/Chicago
CNY,Canyonlands Field,-109.754722,38.755,America/Denver
COD,Yellowstone Rgnl,-109.023806,44.520194,America/Denver
COE,Pappy Boyington,-116.8195833,47.7743056,America/Los_Angeles
COF,Patrick Afb,-80.610125,28.234922,America/New_York
COI,Merritt Island Airport,-80.6854722,28.3416111,America/New_York
CON,Concord Municipal,-71.50233,43.20267,America/New_York
COS,City Of Colorado Springs Muni,-104.700778,38.805805,America/Denver
COT,Cotulla Lasalle Co,-99.220294,28.456694,America/Chicago
COU,Columbia Rgnl,-92.219631,38.818094,America/Chicago
CPR,Natrona Co Intl,-106.464417,42.908,America/Denver
CPS,St. Louis Downtown Airport,-90.1562211,38.5707244,America/Chicago
CRE,Grand Strand Airport,-78.7239444,33.81175,America/New_York
CRP,Corpus Christi Intl,-97.501222,27.770361,America/Chicago
CRW,Yeager,-81.593189,38.373147,America/New_York
CSG,Columbus Metropolitan Airport,-84.9388611,32.5163333,America/New_York
CTB,Cut Bank Muni,-112.376144,48.608353,America/Denver
CTH,Chester County G O Carlson Airport,-75.8654,39.9789,America/New_York
CTJ,West Georgia Regional Airport - O V Gray Field,-85.1522641,33.6316964,America/New_York
CTY,Cross City,-83.10475,29.6355278,America/New_York
CVG,Cincinnati Northern Kentucky Intl,-84.667822,39.048836,America/New_York
CVN,Clovis Muni,-103.079278,34.425139,America/Denver
CVO,Corvallis Muni,-123.2915,44.5067,America/Los_Angeles
CVS,Cannon Afb,-103.322147,34.382775,America/Denver
CVX,Charlevoix Municipal Airport,-85.2753333,45.3047778,America/New_York
CWA,Central Wisconsin,-89.646635,44.772726,America/Chicago
CWI,Clinton Municipal,-90.3289722,41.83075,America/Chicago
CWT,Chatsworth Station,-118.598889,34.256944,America/Los_Angeles
CXF,Coldfoot Airport,-150.176111,67.251389,America/Anchorage
CXL,Calexico Intl,-115.51333,32.669502,America/Los_Angeles
CXO,Lone Star Executive,-95.414467,30.351833,America/Chicago
CXY,Capital City Airport,-76.8513611,40.2171389,America/New_York
CYF,Chefornak Airport,-164.285556,60.149167,America/Anchorage
CYM,Chatham Seaplane Base,-134.946111,57.515,America/Anchorage
CYS,Cheyenne Rgnl Jerry Olson Fld,-104.811839,41.155722,America/Denver
CYT,Yakataga Airport,-142.493611,60.081901,America/Anchorage
CZF,Cape Romanzof Lrrs,-166.038747,61.780297,America/Anchorage
CZG,Tri-Cities,-76.0578,42.0471,America/New_York
CZN,Chisana Airport,-142.048333,62.071111,America/Anchorage
DAB,Daytona Beach Intl,-81.058056,29.179917,America/New_York
DAL,Dallas Love Fld,-96.851778,32.847111,America/Chicago
DAW,Skyhaven Airport,-70.9292778,43.2840556,America/New_York
DAY,James M Cox Dayton Intl,-84.219375,39.902375,America/New_York
DBN,W H Barron Field,-82.591,32.3388,America/New_York
DBQ,Dubuque Rgnl,-90.709472,42.402,America/Chicago
DCA,Ronald Reagan Washington Natl,-77.037722,38.852083,America/New_York
DDC,Dodge City Regional Airport,-99.9656,37.7634,America/Chicago
DEC,Decatur,-88.865689,39.834564,America/Chicago
DEN,Denver Intl,-104.673178,39.861656,America/Denver
DET,Coleman A Young Muni,-83.009861,42.409195,America/New_York
DFW,Dallas Fort Worth Intl,-97.037997,32.896828,America/Chicago
DGL,Douglas Municipal Airport,-109.5064544,31.3426028,America/Phoenix
DHB,Deer Harbor Seaplane,-123.00596,48.618397,America/Los_Angeles
DHN,Dothan Rgnl,-85.449628,31.321339,America/Chicago
DHT,Dalhart Muni,-102.547278,36.022586,America/Chicago
DIK,Dickinson Theodore Roosevelt Regional Airport,-102.801944,46.7975,America/Denver
DKB,De Kalb Taylor Municipal Airport,-88.7056864,41.9338342,America/Chicago
DKK,Chautauqua County-Dunkirk Airport,-79.2720417,42.4933353,America/New_York
DKX,Knoxville Downtown Island Airport,-83.8736667,35.9638333,America/New_York
DLF,Laughlin Afb,-100.777975,29.359486,America/Chicago
DLG,Dillingham,-158.5055,59.044667,America/Anchorage
DLH,Duluth Intl,-92.193649,46.842091,America/Chicago
DLL,Baraboo Wisconsin Dells Airport,-89.7709266,43.5217843,America/Chicago
DMA,Davis Monthan Afb,-110.883144,32.166467,America/Phoenix
DNL,Daniel Field Airport,-82.0393808,33.4665028,America/New_York
DNN,Dalton Municipal Airport,-84.87025,34.7229444,America/New_York
DNV,Vermilion Regional,-87.5955278,40.1996944,America/Chicago
DOV,Dover Afb,-75.465958,39.129539,America/New_York
DPA,Dupage,-88.248611,41.907778,America/Chicago
DQH,Douglas Municipal Airport,-82.8605664,31.4767385,America/New_York
DRG,Deering Airport,-162.766,66.0696,America/Anchorage
DRI,Beauregard Rgnl,-93.339917,30.831722,America/Chicago
DRM,Drummond Island Airport,-83.7439342,46.0093114,America/New_York
DRO,Durango La Plata Co,-107.75377,37.151516,America/Denver
DRT,Del Rio Intl,-100.927158,29.374208,America/Chicago
DSM,Des Moines Intl,-93.663083,41.533972,America/Chicago
DTA,Delta Municipal Airport,-112.5077147,39.3806386,America/Denver
DTS,Destin,-86.4714772,30.4000611,America/Chicago
DTW,Detroit Metro Wayne Co,-83.353389,42.212444,America/New_York
DUC,Halliburton Field Airport,-97.9598611,34.4713056,America/Chicago
DUG,Bisbee Douglas Intl,-109.603667,31.469028,America/Phoenix
DUJ,DuBois Regional Airport,-78.8987,41.1783,America/New_York
DUT,Unalaska,-166.5435,53.900139,America/Anchorage
DVL,Devils Lake Regional Airport,-98.908611,48.114444,America/Chicago
DVT,Deer Valley Municipal Airport,112.457,33.4117,Asia/Chongqing
DWA,Yolo County Airport,-121.8569444,38.5793889,America/Los_Angeles
DWH,David Wayne Hooks Field,-95.554276,30.063746,America/Chicago
DWS,Orlando,-81.57,28.398,America/New_York
DXR,Danbury Municipal Airport,-73.4821906,41.3715353,America/New_York
DYS,Dyess Afb,-99.8546,32.420756,America/Chicago
E25,Wickenburg Municipal Airport,-112.7990036,33.96889877,America/Phoenix
E51,Bagdad Airport,-113.170195,34.5958528,America/Phoenix
E55,Ocean Ridge Airport,-123.5306389,38.8016111,America/Los_Angeles
E63,Gila Bend Municipal Airport,-112.673636,32.960169,America/Phoenix
E91,Chinle Municipal Airport,-109.5754222,36.1108806,America/Denver
EAA,Eagle Airport,-141.149722,64.778056,America/Anchorage
EAR,Kearney Municipal Airport,-99.0068,40.727,America/Chicago
EAT,Pangborn Field,-120.206,47.398,America/Los_Angeles
EAU,Chippewa Valley Regional Airport,-91.4843,44.8658,America/Chicago
ECA,Iosco County,-83.422,44.311,America/New_York
ECG,Elizabeth City Cgas Rgnl,-76.174572,36.260581,America/New_York
ECP,Panama City-NW Florida Bea.,-85.7973,30.3417,America/Chicago
EDF,Elmendorf Afb,-149.806503,61.250986,America/Anchorage
EDW,Edwards Afb,-117.883739,34.905417,America/Los_Angeles
EEK,Eek Airport,-162.043889,60.213611,America/Anchorage
EET,Shelby County Airport,-86.7832222,33.1777778,America/Chicago
EFD,Ellington Fld,-95.15875,29.607333,America/Chicago
EGA,Eagle County Airport,-106.9159347,39.6427611,America/Denver
EGE,Eagle Co Rgnl,-106.917694,39.642556,America/Denver
EGT,Wellington Municipal,-97.423225,37.39411,America/Chicago
EGV,Eagle River,-89.268283,45.932333,America/Chicago
EGX,Egegik Airport,-157.375556,58.185556,America/Anchorage
EHM,Cape Newenham Lrrs,-162.062778,58.646428,America/Anchorage
EIL,Eielson Afb,-147.1015,64.665667,America/Anchorage
EKI,Elkhart Municipal,-86.003333,41.719444,America/New_York
EKN,Elkins Randolph Co Jennings Randolph,-79.857139,38.889444,America/New_York
EKO,Elko Regional Airport,-115.792,40.8249,America/Los_Angeles
EKY,Bessemer,-86.5558,33.1876,America/Chicago
ELD,South Arkansas Rgnl At Goodwin Fld,-92.813278,33.220972,America/Chicago
ELI,Elim Airport,-162.270556,64.615,America/Anchorage
ELM,Elmira Corning Rgnl,-76.891611,42.159889,America/New_York
ELP,El Paso Intl,-106.377583,31.80725,America/Denver
ELV,Elfin Cove Seaplane Base,-136.3475,58.195278,America/Anchorage
ELY,Ely Airport,-114.841944,39.299722,America/Los_Angeles
EMK,Emmonak Airport,-164.490833,62.786111,America/Anchorage
EMP,Emporia Municipal Airport,-96.1912,38.3321,America/Chicago
ENA,Kenai Muni,-151.245,60.573111,America/Anchorage
END,Vance Afb,-97.9165,36.339167,America/Chicago
ENV,Wendover,-114.030889,40.718694,America/Denver
ENW,Kenosha Regional Airport,-87.9278056,42.5956944,America/Chicago
EOK,Keokuk Municipal Airport,-91.4285011,40.4599078,America/Chicago
EPM,Eastport Municipal Airport,-67.0126944,44.9101111,America/New_York
EQY,Monroe Reqional Airport,-80.62001,35.01833,America/New_York
ERI,Erie Intl Tom Ridge Fld,-80.176217,42.082022,America/New_York
ERV,Kerrville Municipal Airport,-99.0854722,29.9766667,America/Chicago
ERY,Luce County Airport,-85.457298,46.311199,America/New_York
ESC,Delta County Airport,-87.093611,45.722778,America/New_York
ESD,Orcas Island Airport,-122.910556,48.708056,America/Los_Angeles
ESF,Esler Rgnl,-92.295772,31.394903,America/Chicago
ESN,Easton-Newnam Field Airport,-76.069,38.8041667,America/New_York
EUF,Weedon Field,-85.0774,31.5708,America/Chicago
EUG,Mahlon Sweet Fld,-123.211972,44.124583,America/Los_Angeles
EVV,Evansville Regional,-87.532364,38.036997,America/Chicago
EVW,Evanston-Uinta CO Burns Fld,-111.0208,41.1649,America/Denver
EWB,New Bedford Regional Airport,-70.9569,41.6761,America/New_York
EWK,Newton City-County Airport,-97.2752278,38.0570785,America/Chicago
EWN,Craven Co Rgnl,-77.042944,35.072972,America/New_York
EWR,Newark Liberty Intl,-74.168667,40.6925,America/New_York
EXI,Excursion Inlet Seaplane Base,-135.449167,58.420556,America/Anchorage
EYW,Key West Intl,-81.759556,24.556111,America/New_York
F57,Seaplane Base,-81.7628056,28.0575,America/New_York
FAF,Felker Aaf,-76.608841,37.1325,America/New_York
FAI,Fairbanks Intl,-147.856267,64.815114,America/Anchorage
FAR,Hector International Airport,-96.8157639,46.92065,America/Chicago
FAT,Fresno Yosemite Intl,-119.71814,36.776194,America/Los_Angeles
FAY,Fayetteville Regional Grannis Field,-78.8803,34.9912,America/New_York
FBG,Fredericksburg Amtrak Station,-77.456875,38.298416,America/New_York
FBK,Ladd Aaf,-147.614444,64.8375,America/Anchorage
FBR,Fort Bridger,-110.2436,41.236,America/Denver
FBS,Friday Harbor Seaplane Base,-123.009722,48.537222,America/Los_Angeles
FCA,Glacier Park Intl,-114.256,48.310472,America/Denver
FCM,Flying Cloud Airport,-93.2726,44.4938,America/Chicago
FCS,Butts Aaf,-104.756581,38.678394,America/Denver
FDW,Fairfield County Airport,-81.108806,34.315472,America/New_York
FDY,Findlay Airport,-83.6686111,41.0120278,America/New_York
FFA,First Flight Airport,-75.67,36.02,America/New_York
FFC,Atlanta Regional Airport - Falcon Field,-84.5718333,33.35725,America/New_York
FFO,Wright Patterson Afb,-84.048332,39.826111,America/New_York
FFT,Capital City Airport,-84.9061389,38.1819722,America/New_York
FFZ,Mesa Falcon Field,-111.727996826172,33.4608001708984,America/Phoenix
FHU,Sierra Vista Muni Libby Aaf,-110.344389,31.588472,America/Phoenix
FIT,Fitchburg Municipal Airport,-71.7589722,42.5541111,America/New_York
FKL,Franklin,-79.860362,41.377874,America/New_York
FLD,Fond Du Lac County Airport,-88.4884167,43.7711667,America/Chicago
FLG,Flagstaff Pulliam Airport,-111.6692392,35.140318,America/Phoenix
FLL,Fort Lauderdale Hollywood Intl,-80.15275,26.072583,America/New_York
FLO,Florence Rgnl,-79.723889,34.185361,America/New_York
FLV,Sherman Aaf,-94.914686,39.368332,America/Chicago
FME,Tipton,-76.759414,39.085386,America/New_York
FMH,Otis Angb,-70.521417,41.658439,America/New_York
FMN,Four Corners Rgnl,-108.229944,36.74125,America/Denver
FMY,Page Fld,-81.86325,26.586611,America/New_York
FNL,Fort Collins Loveland Muni,-105.011336,40.451828,America/Denver
FNR,Funter Bay Seaplane Base,-134.897778,58.254444,America/Anchorage
FNT,Bishop International,-83.743629,42.965424,America/New_York
FOD,Fort Dodge Rgnl,-94.191842,42.5512,America/Chicago
FOE,Forbes Fld,-95.663611,38.950944,America/Chicago
FOK,Francis S Gabreski,-72.631789,40.843656,America/New_York
FRD,Friday Harbor Airport,-123.024444,48.521944,America/Los_Angeles
FRI,Marshall Aaf,-96.764453,39.055275,America/Chicago
FRN,Bryant Ahp,-149.653119,61.266381,America/Anchorage
FRP,St Lucie County International Airport,-80.372638,27.497472,America/New_York
FSD,Sioux Falls,-96.741914,43.582014,America/Chicago
FSI,Henry Post Aaf,-98.402167,34.649833,America/Chicago
FSM,Fort Smith Rgnl,-94.367444,35.336583,America/Chicago
FST,Fort Stockton Pecos Co,-102.916139,30.915667,America/Chicago
FTK,Godman Aaf,-85.972106,37.907058,America/New_York
FTW,Fort Worth Meacham Intl,-97.362444,32.819778,America/Chicago
FTY,Fulton County Airport Brown Field,-84.5214,33.7791,America/New_York
FUL,Fullerton Municipal Airport,-117.584722,33.521925,America/Los_Angeles
FWA,Fort Wayne,-85.195139,40.978472,America/New_York
FXE,Fort Lauderdale Executive,-80.170706,26.197281,America/New_York
FYU,Fort Yukon,-145.250417,66.571492,America/Anchorage
FYV,Drake Fld,-94.170059,36.005094,America/Chicago
FZG,Fitzgerald Municipal Airport,-83.2709036,31.6839046,America/New_York
FZI,Fostoria Metropolitan Airport,-83.3930833,41.1908333,America/New_York
GAD,Northeast Alabama Regional Airport,-86.0890834,33.9726489,America/Chicago
GAI,Montgomery County Airpark,-77.09576,39.1006,America/New_York
GAL,Edward G Pitka Sr,-156.937417,64.736178,America/Anchorage
GAM,Gambell Airport,-171.733,63.7668,America/Anchorage
GBN,Great Bend Municipal,-98.859167,38.344167,America/Chicago
GCC,Gillette-Campbell County Airport,-105.5393611,44.3489167,America/Denver
GCK,Garden City Rgnl,-100.724417,37.927528,America/Chicago
GCN,Grand Canyon National Park Airport,-112.1469722,35.9523611,America/Phoenix
GCW,Grand Canyon West Airport,-113.4859,35.5925,America/Phoenix
GDV,Dawson Community Airport,-104.807222,47.138611,America/Denver
GDW,Gladwin Zettel Memorial Airport,-84.47502,43.9705893,America/New_York
GED,Sussex Co,-75.358889,38.689194,America/New_York
GEG,Spokane Intl,-117.533833,47.619861,America/Los_Angeles
GEU,Glendale Municipal Airport,-112.2951389,33.5269167,America/Phoenix
GFK,Grand Forks Intl,-97.176111,47.949256,America/Chicago
GFL,Floyd Bennett Memorial Airport,-73.610305,43.341222,America/New_York
GGE,Georgetown County Airport,-79.3203139,33.3114018,America/New_York
GGG,East Texas Rgnl,-94.711486,32.384014,America/Chicago
GGW,Wokal Field Glasgow International Airport,-106.615,48.2125,America/Denver
GHG,Marshfield Municipal Airport,-70.6721389,42.09825,America/New_York
GIF,Gilbert Airport,-81.753333,28.062778,America/New_York
GJT,Grand Junction Regional,-108.526735,39.122413,America/Denver
GKN,Gulkana,-145.456639,62.154888,America/Anchorage
GKY,Arlington Municipal,-97.0942778,32.6638611,America/Chicago
GLD,Renner Fld,-101.698992,39.370621,America/Denver
GLH,Mid Delta Regional Airport,-90.9856,33.4829,America/Chicago
GLS,Scholes Intl At Galveston,-94.860406,29.265322,America/Chicago
GLV,Golovin Airport,-163.007222,64.550556,America/Anchorage
GNT,Grants Milan Muni,-107.901989,35.167286,America/Denver
GNU,Goodnews Airport,-161.5775,59.1175,America/Anchorage
GNV,Gainesville Rgnl,-82.271778,29.690056,America/New_York
GON,Groton New London,-72.045139,41.330056,America/New_York
GPT,Gulfport-Biloxi,-89.070111,30.407278,America/Chicago
GPZ,Grand Rapids Itasca County,-93.509722,47.211111,America/Chicago
GQQ,Galion Municipal Airport,-82.7238056,40.7533889,America/New_York
GRB,Austin Straubel Intl,-88.129589,44.485072,America/Chicago
GRF,Gray Aaf,-122.580783,47.079217,America/Los_Angeles
GRI,Central Nebraska Regional Airport,-98.3096,40.9675,America/Chicago
GRK,Robert Gray Aaf,-97.828917,31.06725,America/Chicago
GRM,Grand Marais Cook County Airport,-90.3829444,47.8383333,America/Chicago
GRR,Gerald R Ford Intl,-85.522806,42.880833,America/New_York
GSB,Seymour Johnson Afb,-77.960589,35.339383,America/New_York
GSO,Piedmont Triad,-79.937306,36.09775,America/New_York
GSP,Greenville-Spartanburg International,-82.218889,34.895556,America/New_York
GST,Gustavus Airport,-135.707,58.4253,America/Anchorage
GTB,Wheeler Sack Aaf,-75.719458,44.055619,America/New_York
GTF,Great Falls Intl,-111.370689,47.482,America/Denver
GTR,Golden Triangle Regional Airport,-88.591361,33.450333,America/Chicago
GTU,Georgetown Municipal Airport,-97.6793837,30.678809,America/Chicago
GUC,Gunnison - Crested Butte,-106.933056,38.533889,America/Denver
GUP,Gallup Muni,-108.789308,35.511058,America/Denver
GUS,Grissom Arb,-86.152119,40.648094,America/New_York
GVL,Lee Gilmer Memorial Airport,-83.8302233,34.272627,America/New_York
GVQ,Genesee County Airport,-78.1696667,43.03175,America/New_York
GVT,Majors,-96.065333,33.067839,America/Chicago
GWO,Greenwood Leflore,-90.084706,33.494328,America/Chicago
GYY,Gary Chicago International Airport,-87.4128,41.6163,America/Chicago
HBG,Hattiesburg Bobby L. Chain Municipal Airport,-89.2528889,31.2649444,America/Chicago
HBR,Hobart Muni,-99.051353,34.991308,America/Chicago
HCC,Columbia County,-73.7103,42.2913,America/New_York
HCR,Holy Cross Airport,-159.775,62.1883,America/Anchorage
HDH,Dillingham,-158.197281,21.579475,Pacific/Honolulu
HDI,Hardwick Field Airport,-84.832369,35.2199994,America/New_York
HDN,Yampa Valley,-107.21766,40.481181,America/Denver
HDO,Hondo Municipal Airport,-99.1775,29.3591,America/Chicago
HFD,Hartford Brainard,-72.649444,41.736722,America/New_York
HGR,Hagerstown Regional Richard A Henson Field,-77.7295,39.7079,America/New_York
HHH,Hilton Head,-80.752,32.216,America/New_York
HHI,Wheeler Aaf,-158.039667,21.4835,Pacific/Honolulu
HHR,Jack Northrop Fld Hawthorne Muni,-118.335186,33.922839,America/Los_Angeles
HIB,Chisholm Hibbing,-92.838994,47.3866,America/Chicago
HIF,Hill Afb,-111.973039,41.123939,America/Denver
HII,Lake Havasu City Airport,-114.3582778,34.5711111,America/Phoenix
HIO,Portland Hillsboro,-122.949825,45.540394,America/Los_Angeles
HKB,Healy River Airport,-148.968889,63.8675,America/Anchorage
HKY,Hickory Rgnl,-81.38955,35.741147,America/New_York
HLG,Wheeling Ohio County Airport,-80.6463,40.175,America/New_York
HLN,Helena Rgnl,-111.98275,46.606806,America/Denver
HLR,Hood Aaf,-97.714469,31.138731,America/Chicago
HMN,Holloman Afb,-106.106525,32.852519,America/Denver
HNH,Hoonah Airport,-135.409722,58.096111,America/Anchorage
HNL,Honolulu Intl,-157.922428,21.318681,Pacific/Honolulu
HNM,Hana,-156.014439,20.795636,Pacific/Honolulu
HNS,Haines Airport,-135.524,59.2438,America/Anchorage
HOB,Lea Co Rgnl,-103.217028,32.687528,America/Denver
HOM,Homer,-151.476583,59.645556,America/Anchorage
HON,Huron Rgnl,-98.228542,44.3852,America/Chicago
HOP,Campbell Aaf,-87.496183,36.668567,America/Chicago
HOT,Memorial Field,-93.0962,34.478,America/Chicago
HOU,William P Hobby,-95.278889,29.645419,America/Chicago
HPB,Hooper Bay Airport,-166.147,61.5239,America/Anchorage
HPN,Westchester Co,-73.707575,41.066959,America/New_York
HQM,Bowerman Field,-123.9365556,46.9711944,America/Los_Angeles
HQU,McDuffie County Airport,-82.5169509,33.5297315,America/New_York
HRL,Valley Intl,-97.654389,26.2285,America/Chicago
HRO,Boone Co,-93.154728,36.261519,America/Chicago
HRT,Hurlburt Fld,-86.689278,30.427803,America/Chicago
HSH,Henderson Executive Airport,-115.134444,35.972778,America/Los_Angeles
HSL,Huslia Airport,-156.351389,65.697778,America/Anchorage
HST,Homestead Arb,-80.383567,25.48855,America/New_York
HSV,Huntsville International Airport-Carl T Jones Field,-86.7750556,34.6371944,America/Chicago
HTL,Roscommon Co,-84.671112,44.359806,America/New_York
HTS,Tri State Milton J Ferguson Field,-82.558,38.3667,America/New_York
HUA,Redstone Aaf,-86.684781,34.678653,America/Chicago
HUF,Terre Haute Intl Hulman Fld,-87.307561,39.451464,America/New_York
HUL,Houlton Intl,-67.792056,46.123083,America/New_York
HUS,Hughes Airport,-154.264722,66.039167,America/Anchorage
HUT,Hutchinson Municipal Airport,-97.8606,38.0655,America/Chicago
HVN,Tweed-New Haven Airport,-72.886806000000007,41.26375,America/New_York
HVR,Havre City Co,-109.762342,48.542983,America/Denver
HWD,Hayward Executive Airport,-122.12166666666666,37.65888888888889,America/Los_Angeles
HWO,North Perry,-80.240722,26.001222,America/New_York
HXD,Hilton Head Airport,-80.697472200000007,32.2243611,America/New_York
HYA,Barnstable Muni Boardman Polando Fld,-70.280356,41.669336,America/New_York
HYG,Hydaburg Seaplane Base,-132.828333,55.206389,America/Anchorage
HYL,Hollis Seaplane Base,-132.646111,55.481667,America/Anchorage
HYS,Hays Regional Airport,-99.2732,38.8422,America/Chicago
HZL,Hazleton Municipal,-76.0025,40.989167,America/New_York
IAB,Mc Connell Afb,-97.268192,37.621853,America/Chicago
IAD,Washington Dulles Intl,-77.455811,38.944533,America/New_York
IAG,Niagara Falls Intl,-78.946194,43.107333,America/New_York
IAH,George Bush Intercontinental,-95.341442,29.984433,America/Chicago
IAN,Bob Baker Memorial Airport,-160.436667,66.975833,America/Anchorage
ICT,Wichita Mid Continent,-97.433056,37.649944,America/Chicago
ICY,Icy Bay Airport,-141.661667,59.968889,America/Anchorage
IDA,Idaho Falls Rgnl,-112.07075,43.514556,America/Denver
IDL,Idlewild Intl,-73.778924,40.639751,America/New_York
IFP,Laughlin-Bullhead Intl,-114.56,35.1574,America/Phoenix
IGG,Igiugig Airport,-155.902,59.324,America/Anchorage
IGM,Kingman Airport,-113.938,35.2595,America/Phoenix
IGQ,Lansing Municipal,-87.5295278,41.5349167,America/Chicago
IJD,Windham Airport,-72.1802222,41.7440278,America/New_York
IKK,Greater Kankakee,-87.846278,41.071389,America/Chicago
IKO,Nikolski Air Station,-168.848889,52.941667,America/Anchorage
IKR,Kirtland Air Force Base,-106.609194,35.040222,America/Denver
IKV,Ankeny Regl Airport,-93.566389,41.691389,America/Chicago
ILG,New Castle,-75.606528,39.678722,America/New_York
ILI,Iliamna,-154.910961,59.754356,America/Anchorage
ILM,Wilmington Intl,-77.902569,34.270615,America/New_York
ILN,Wilmington Airborne Airpark,-83.792118,39.42792,America/New_York
IMM,Immokalee,-81.401389,26.433889,America/New_York
IMT,Ford Airport,-88.1145556,45.8183611,America/Chicago
IND,Indianapolis Intl,-86.294383,39.717331,America/New_York
INJ,Hillsboro Muni,-97.097228,32.083486,America/Chicago
INK,Winkler Co,-103.201361,31.779628,America/Chicago
INL,Falls Intl,-93.403067,48.566186,America/Chicago
INS,Creech Afb,-115.673353,36.587183,America/Los_Angeles
INT,Smith Reynolds,-80.222,36.133722,America/New_York
INW,Winslow-Lindbergh Regional Airport,-110.7225278,35.0219167,America/Phoenix
IOW,Iowa City Municipal Airport,-91.546503,41.639244,America/Chicago
IPL,Imperial Co,-115.578744,32.834219,America/Los_Angeles
IPT,Williamsport Rgnl,-76.921094,41.241836,America/New_York
IRC,Circle City Airport,-144.076111,65.827778,America/Anchorage
IRK,Kirksville Regional Airport,-92.5449,40.0935,America/Chicago
ISM,Kissimmee Gateway Airport,-81.437083,28.289806,America/New_York
ISN,Sloulin Fld Intl,-103.642347,48.177939,America/Chicago
ISO,Kinston Regional Jetport,-77.608889,35.331389,America/New_York
ISP,Long Island Mac Arthur,-73.100222,40.79525,America/New_York
ISW,Alexander Field South Wood County Airport,-89.8381412,44.3606456,America/Chicago
ITH,Ithaca Tompkins Rgnl,-76.458444,42.491028,America/New_York
ITO,Hilo Intl,-155.048469,19.721375,Pacific/Honolulu
IWD,Gogebic Iron County Airport,-90.1313967,46.5274747,America/Chicago
IWS,West Houston,-95.672611,29.818194,America/Chicago
IYK,Inyokern Airport,-117.829444,35.658889,America/Los_Angeles
IZG,Eastern Slopes Regional,-70.9478889,43.9911389,America/New_York
JAC,Jackson Hole Airport,-110.73775,43.607333333,America/Denver
JAN,Jackson Evers Intl,-90.075889,32.311167,America/Chicago
JAX,Jacksonville Intl,-81.687861,30.494056,America/New_York
JBR,Jonesboro Muni,-90.646417,35.831708,America/Chicago
JCI,New Century AirCenter Airport,-94.8903056,38.8309167,America/Chicago
JEF,Jefferson City Memorial Airport,-92.1561,38.5912,America/Chicago
JES,Jesup-Wayne County Airport,-81.8825,31.553889,America/New_York
JFK,John F Kennedy Intl,-73.778925,40.639751,America/New_York
JGC,Grand Canyon Heliport,-112.13333333,35.96666666,America/Phoenix
JHM,Kapalua,-156.673031,20.962936,Pacific/Honolulu
JHW,Chautauqua County-Jamestown,-79.258056,42.153333,America/New_York
JKA,Jack Edwards Airport,-87.6717778,30.2896389,America/Chicago
JLN,Joplin Rgnl,-94.498269,37.151814,America/Chicago
JMS,Jamestown Regional Airport,-98.6782,46.9297,America/Chicago
JNU,Juneau Intl,-134.576278,58.354972,America/Anchorage
JOT,Regional Airport,-88.175556,41.517778,America/Chicago
JRA,West 30th St. Heliport,-74.0071,40.7545,America/New_York
JRB,Wall Street Heliport,-74.009028,40.701214,America/New_York
JST,John Murtha Johnstown-Cambria County Airport,-78.833889,40.316111,America/New_York
JVL,Southern Wisconsin Regional Airport,-89.0415556,42.62025,America/Chicago
JXN,Reynolds Field,-84.460556,42.260556,America/New_York
JYL,Plantation Airpark,-81.5971111,32.6452778,America/New_York
JYO,Leesburg Executive Airport,-77.558,39.078,America/New_York
JZP,Pickens County Airport,-84.4572222,34.4534722,America/New_York
K03,Wainwright As,-159.86035,70.613378,America/Anchorage
K27,Burrello-Mechanicville Airport,-73.668450000000007,42.893133,America/New_York
K83,Sabetha Municipal,-95.4677,39.5425,America/Chicago
KAE,Kake Seaplane Base,-133.945556,56.973056,America/Anchorage
KAL,Kaltag Airport,-158.741,64.3191,America/Anchorage
KBC,Birch Creek Airport,-145.815319,66.256708,America/Anchorage
KBW,Chignik Bay Seaplane Base,-158.401398,56.295556,America/Anchorage
KCC,Coffman Cove Seaplane Base,-132.833889,56.014722,America/Anchorage
KCL,Chignik Lagoon Airport,-158.534167,56.311111,America/Anchorage
KCQ,Chignik Lake Airport,-158.775278,56.255,America/Anchorage
KEH,Kenmore Air Harbor Inc Seaplane Base,-122.259,47.7548,America/Los_Angeles
KEK,Ekwok Airport,-157.471111,59.356944,America/Anchorage
KFP,False Pass Airport,-163.410278,54.8475,America/Anchorage
KGK,Koliganek Airport,-157.259444,59.726667,America/Anchorage
KGX,Grayling Airport,-160.065,62.894444,America/Anchorage
KKA,Koyuk Alfred Adams Airport,-161.154167,64.939444,America/Anchorage
KKB,Kitoi Bay Seaplane Base,-152.370556,58.190833,America/Anchorage
KKH,Kongiganak Airport,-162.881111,59.960833,America/Anchorage
KLG,Kalskag Airport,-160.341,61.5363,America/Anchorage
KLL,Levelock Airport,-156.858611,59.128056,America/Anchorage
KLN,Larsen Bay Airport,-153.976667,57.535,America/Anchorage
KLS,Kelso Longview,-122.898389,46.118,America/Los_Angeles
KLW,Klawock Airport,-133.076111,55.579167,America/Anchorage
KMO,Manokotak Airport,-159.05,58.990278000000004,America/Anchorage
KMY,Moser Bay Seaplane Base,-154.145833,57.025556,America/Anchorage
KNW,New Stuyahok Airport,-157.328,59.4499,America/Anchorage
KOA,Kona Intl At Keahole,-156.045631,19.738767,Pacific/Honolulu
KOT,Kotlik Airport,-163.532778,63.030556,America/Anchorage
KOY,Olga Bay Seaplane Base,-154.229722,57.161389,America/Anchorage
KOZ,Ouzinkie Airport,-152.500511,57.922876,America/Anchorage
KPB,Point Baker Seaplane Base,-133.6225,56.351944,America/Anchorage
KPC,Port Clarence Coast Guard Station,-166.859,65.2537,America/Anchorage
KPN,Kipnuk Airport,-164.030556,59.933056,America/Anchorage
KPR,Port Williams Seaplane Base,-152.582222,58.49,America/Anchorage
KPV,Perryville Airport,-159.160833,55.906667,America/Anchorage
KPY,Port Bailey Seaplane Base,-153.040556,57.93,America/Anchorage
KQA,Akutan Seaplane Base,-165.785,54.1325,America/Anchorage
KSM,St Marys Airport,-163.302,62.0605,America/Anchorage
KTB,Thorne Bay Seaplane Base,-132.536667,55.688056,America/Anchorage
KTN,Ketchikan Intl,-131.71375,55.355556,America/Anchorage
KTS,Brevig Mission Airport,-166.465833,65.331389,America/Anchorage
KUK,Kasigluk Airport,-162.524444,60.873333,America/Anchorage
KVC,King Cove Airport,-162.266,55.1163,America/Anchorage
KVL,Kivalina Airport,-164.563,67.7362,America/Anchorage
KWK,Kwigillingok Airport,-163.168611,59.876389,America/Anchorage
KWN,Quinhagak Airport,-161.845278,59.755,America/Anchorage
KWP,West Point Village Seaplane Base,-153.548889,57.77,America/Anchorage
KWT,Kwethluk Airport,-161.443611,60.790278,America/Anchorage
KYK,Karuluk Airport,-154.450278,57.566944,America/Anchorage
KYU,Koyukuk Airport,-157.730556,64.875833,America/Anchorage
KZB,Zachar Bay Seaplane Base,-153.75,57.55,America/Anchorage
L06,Furnace Creek,-116.515,36.273,America/Los_Angeles
L35,Big Bear City,-116.8560278,34.2637778,America/Los_Angeles
L52,Oceano County Airport,-120.62236111,35.10147222,America/Los_Angeles
LAA,Lamar Muni,-102.6885,38.069694,America/Denver
LAF,Purude University Airport,-86.9368889,40.4123056,America/New_York
LAL,Lakeland Linder Regional Airport,-82.0185556,27.9889167,America/New_York
LAM,Los Alamos Airport,-106.2694153,35.8798019,America/Denver
LAN,Capital City,-84.587357,42.7787,America/New_York
LAR,Laramie Regional Airport,-105.675,41.3121,America/Denver
LAS,Mc Carran Intl,-115.15225,36.080056,America/Los_Angeles
LAW,Lawton-Fort Sill Regional Airport,-98.4166367,34.5677144,America/Chicago
LAX,Los Angeles Intl,-118.408075,33.942536,America/Los_Angeles
LBB,Lubbock Preston Smith Intl,-101.822778,33.663639,America/Chicago
LBE,Arnold Palmer Regional Airport,-79.4048,40.2759,America/New_York
LBF,North Platte Regional Airport Lee Bird Field,-100.684,41.1262,America/Chicago
LBL,Liberal Muni,-100.95986,37.044222,America/Chicago
LBT,Municipal Airport,-79.0595556,34.6098056,America/New_York
LCH,Lake Charles Rgnl,-93.223335,30.126112,America/Chicago
LCK,Rickenbacker Intl,-82.927822,39.813786,America/New_York
LCQ,Lake City Municipal Airport,-82.576944,30.181944,America/New_York
LDJ,Linden Airport,-74.2445942,40.6174472,America/New_York
LEB,Lebanon Municipal Airport,-72.3042,43.6261,America/New_York
LEW,Lewiston Maine,-70.2835075,44.0484728,America/New_York
LEX,Blue Grass,-84.605889,38.0365,America/New_York
LFI,Langley Afb,-76.360547,37.082881,America/New_York
LFK,Angelina Co,-94.75,31.234014,America/Chicago
LFT,Lafayette Rgnl,-91.987611,30.205278,America/Chicago
LGA,La Guardia,-73.872608,40.777245,America/New_York
LGB,Long Beach,-118.151611,33.817722,America/Los_Angeles
LGC,LaGrange-Callaway Airport,-85.0726111,33.0088611,America/New_York
LGU,Logan-Cache,-111.852,41.791,America/Denver
LHD,Lake Hood Seaplane Base,-149.9653918,61.1866382,America/Anchorage
LHM,Lincoln Regional Airport Karl Harder Field,-121.3513333,38.9091667,America/Los_Angeles
LHV,William T. Piper Mem.,-77.4223056,41.1357778,America/New_York
LHX,La Junta Muni,-103.509431,38.049719,America/Denver
LIH,Lihue,-159.338958,21.975983,Pacific/Honolulu
LIT,Adams Fld,-92.224306,34.729444,America/Chicago
LIV,Livingood Airport,-148.541111,65.531111,America/Anchorage
LKE,Kenmore Air Harbor Seaplane Base,-122.339,47.629,America/Los_Angeles
LKK,Kulik Lake Airport,-155.108089,58.96591,America/Anchorage
LKP,Lake Placid Airport,-73.961944,44.264444,America/New_York
LMT,Klamath Falls Airport,-121.733,42.1561,America/Los_Angeles
LNA,Palm Beach Co Park,-80.085056,26.593,America/New_York
LNK,Lincoln,-96.75925,40.850971,America/Chicago
LNN,Lost Nation Municipal Airport,-81.38975,41.6840278,America/New_York
LNR,Tri-County Regional Airport,-90.181667,43.211667,America/Chicago
LNS,Lancaster Airport,-76.2961,40.1217,America/New_York
LNY,Lanai,-156.951419,20.785611,Pacific/Honolulu
LOT,Lewis University Airport,-88.083003,41.606326,America/Chicago
LOU,Bowman Fld,-85.663722,38.228,America/New_York
LOZ,London-Corbin Airport-MaGee Field,-84.0773889,37.0868889,America/New_York
LPC,Lompoc Airport,-120.4675,34.6656,America/Los_Angeles
LPR,Lorain County Regional Airport,-82.1776389,41.3442778,America/New_York
LPS,Lopez Island Airport,-122.938,48.4839,America/Los_Angeles
LRD,Laredo Intl,-99.461556,27.54375,America/Chicago
LRF,Little Rock Afb,-92.149722,34.916944,America/Chicago
LRU,Las Cruces Intl,-106.921972,32.289417,America/Denver
LSE,La Crosse Municipal,-91.256711,43.878986,America/Chicago
LSF,Lawson Aaf,-84.991283,32.337322,America/New_York
LSV,Nellis Afb,-115.034253,36.236197,America/Los_Angeles
LTS,Altus Afb,-99.266681,34.667067,America/Chicago
LUF,Luke Afb,-112.38306,33.535,America/Phoenix
LUK,Cincinnati Muni Lunken Fld,-84.418611,39.103333,America/New_York
LUP,Kalaupapa Airport,-156.974,21.211,Pacific/Honolulu
LUR,Cape Lisburne Lrrs,-166.110022,68.875133,America/Anchorage
LVK,Livermore Municipal,-121.49133,37.41362,America/Los_Angeles
LVM,Mission Field Airport,-110.4483056,45.6993889,America/Denver
LVS,Las Vegas Muni,-105.142389,35.654222,America/Denver
LWA,South Haven Area Regional Airport,-86.2556389,42.3511944,America/New_York
LWB,Greenbrier Valley Airport,-80.399444,37.858333,America/New_York
LWC,Lawrence Municipal,-95.2175,39.009167,America/Chicago
LWM,Lawrence Municipal Airport,-71.1234167,42.7171944,America/New_York
LWS,Lewiston Nez Perce Co,-117.015389,46.3745,America/Los_Angeles
LWT,Lewistown Municipal Airport,-109.467,47.0493,America/Denver
LXY,Mexia - Limestone County Airport,-96.5144594,31.6411783,America/Chicago
LYH,Lynchburg Regional Preston Glenn Field,-79.2004,37.3267,America/New_York
LYU,Ely Municipal,-91.830833,47.824444,America/Chicago
LZU,Gwinnett County Airport-Briscoe Field,-83.9623772,33.9780761,America/New_York
M94,Desert Aire,-119.5518,46.4124,America/Los_Angeles
MAE,Madera Municipal Airport,-120.1124444,36.9886111,America/Los_Angeles
MAF,Midland Intl,-102.201914,31.942528,America/Chicago
MBL,Manistee County-Blacker Airport,-86.246944,44.2725,America/New_York
MBS,Mbs Intl,-84.079647,43.532913,America/New_York
MCC,Mc Clellan Afld,-121.400611,38.667639,America/Los_Angeles
MCD,Mackinac Island Airport,-84.637344,45.8649344,America/New_York
MCE,Merced Municipal Airport,-120.513889,37.284722,America/Los_Angeles
MCF,Macdill Afb,-82.521214,27.849339,America/New_York
MCG,McGrath Airport,-155.606,62.9529,America/Anchorage
MCI,Kansas City Intl,-94.713905,39.297606,America/Chicago
MCK,McCook Regional Airport,-100.592222,40.206389,America/Chicago
MCL,McKinley National Park Airport,-148.91129,63.732757,America/Anchorage
MCN,Middle Georgia Rgnl,-83.649211,32.69285,America/New_York
MCO,Orlando Intl,-81.308994,28.429394,America/New_York
MCW,Mason City Municipal,-93.4067,43.2247,America/Chicago
MDT,Harrisburg Intl,-76.763403,40.193494,America/New_York
MDW,Chicago Midway Intl,-87.752417,41.785972,America/Chicago
ME5,Banks Airport,-68.4281667,44.1653889,America/New_York
MEI,Key Field,-88.751868,32.332624,America/Chicago
MEM,Memphis Intl,-89.976667,35.042417,America/Chicago
MER,Castle,-120.568189,37.380481,America/Los_Angeles
MFD,Mansfield Lahm Regional,-82.5166389,40.8214167,America/New_York
MFE,Mc Allen Miller Intl,-98.238611,26.175833,America/Chicago
MFI,Marshfield Municipal Airport,-90.1893267,44.6368797,America/Chicago
MFR,Rogue Valley Intl Medford,-122.8735,42.374228,America/Los_Angeles
MGC,Michigan City Municipal Airport,-86.8211,41.7033,America/Chicago
MGE,Dobbins Arb,-84.516319,33.915382,America/New_York
MGJ,Orange County Airport,-74.2646444,41.5099884,America/New_York
MGM,Montgomery Regional Airport,-86.3939722,32.3006389,America/Chicago
MGR,Moultrie Municipal Airport,-83.80325,31.0849167,America/New_York
MGW,Morgantown Muni Walter L Bill Hart Fld,-79.916314,39.642908,America/New_York
MGY,Dayton-Wright Brothers Airport,-84.2248611,39.5889722,America/New_York
MHK,Manhattan Reigonal,-96.670833,39.140972,America/Chicago
MHM,Minchumina Airport,-152.301944,63.886111,America/Anchorage
MHR,Sacramento Mather,-121.297592,38.553897,America/Los_Angeles
MHT,Manchester Regional Airport,-71.435667,42.932556,America/New_York
MHV,Mojave,-118.151856,35.059364,America/Los_Angeles
MIA,Miami Intl,-80.290556,25.79325,America/New_York
MIB,Minot Afb,-101.357661,48.415572,America/Chicago
MIC,Crystal Airport,-93.2114,45.0343,America/Chicago
MIE,Delaware County Airport,-85.39575,40.2424722,America/New_York
MIV,Millville Muni,-75.072222,39.367806,America/New_York
MKC,Downtown,-94.598889,39.1275,America/Chicago
MKE,General Mitchell Intl,-87.896583,42.947222,America/Chicago
MKG,Muskegon County Airport,-86.2382,43.1695,America/New_York
MKK,Molokai,-157.096256,21.152886,Pacific/Honolulu
MKL,Mc Kellar Sipes Rgnl,-88.915611,35.599889,America/Chicago
MKO,Davis Fld,-95.366656,35.656489,America/Chicago
MLB,Melbourne Intl,-80.645258,28.102753,America/New_York
MLC,Mc Alester Rgnl,-95.783463,34.882403,America/Chicago
MLD,Malad City,-112.289,42.17,America/Denver
MLI,Quad City Intl,-90.507539,41.448528,America/Chicago
MLJ,Baldwin County Airport,-83.2414139,33.154225,America/New_York
MLL,Marshall Don Hunter Sr. Airport,-162.026111,61.8646418,America/Anchorage
MLS,Frank Wiley Field,-105.886,46.428,America/Denver
MLT,Millinocket Muni,-68.685561,45.647836,America/New_York
MLU,Monroe Rgnl,-92.037689,32.510864,America/Chicago
MLY,Manley Hot Springs Airport,-150.644167,64.9975,America/Anchorage
MMH,Mammoth Yosemite Airport,-118.837772,37.624049,America/Los_Angeles
MMI,McMinn Co,-84.56177,35.39919,America/New_York
MMU,Morristown Municipal Airport,-74.4148747,40.79935,America/New_York
MMV,Mc Minnville Muni,-123.135944,45.194444,America/Los_Angeles
MNM,Menominee Marinette Twin Co,-87.638443,45.12665,America/Chicago
MNT,Minto Airport,-149.37,65.143611,America/Anchorage
MNZ,Manassas,-77.515556,38.721389,America/New_York
MOB,Mobile Rgnl,-88.242814,30.691231,America/Chicago
MOD,Modesto City Co Harry Sham,-120.954422,37.625817,America/Los_Angeles
MOT,Minot Intl,-101.280333,48.259378,America/Chicago
MOU,Mountain Village Airport,-163.682,62.0954,America/Anchorage
MPB,Miami Seaplane Base,-80.1703,25.7783,America/New_York
MPI,MariposaYosemite,-120.0222,37.3039,America/Los_Angeles
MPV,Edward F Knapp State,-72.562328,44.203503,America/New_York
MQB,Macomb Municipal Airport,-90.6523889,40.5200833,America/Chicago
MQI,Dare County Regional,-75.4173,35.5514,America/New_York
MQT,Sawyer International Airport,-87.395278,46.353611,America/New_York
MRB,Eastern WV Regional Airport,-77.591,39.2407,America/New_York
MRI,Merrill Fld,-149.844447,61.213544,America/Anchorage
MRK,Marco Islands,-81.6725278,25.9950278,America/New_York
MRN,Foothills Regional Airport,-81.6115119,35.8202336,America/New_York
MRY,Monterey Peninsula,-121.842944,36.587,America/Los_Angeles
MSL,Northwest Alabama Regional Airport,-87.6102,34.7453,America/Chicago
MSN,Dane Co Rgnl Truax Fld,-89.337514,43.139858,America/Chicago
MSO,Missoula Intl,-114.090556,46.916306,America/Denver
MSP,Minneapolis St Paul Intl,-93.221767,44.881956,America/Chicago
MSS,Massena Intl Richards Fld,-74.845547,44.935833,America/New_York
MSY,Louis Armstrong New Orleans Intl,-90.258028,29.993389,America/Chicago
MTC,Selfridge Angb,-82.8355,42.608333,America/New_York
MTH,Florida Keys Marathon Airport,-81.051389,24.726111,America/New_York
MTJ,Montrose Regional Airport,-107.894242,38.509794,America/Denver
MTM,Metlakatla Seaplane Base,-131.578056,55.131111,America/Anchorage
MTN,Martin State,-76.4137778,39.3256667,America/New_York
MUE,Waimea Kohala,-155.668108,20.001328,Pacific/Honolulu
MUI,Muir Aaf,-76.569411,40.434811,America/New_York
MUO,Mountain Home Afb,-115.872431,43.043603,America/Denver
MVL,Morrisville Stowe State Airport,-72.614,44.535,America/New_York
MVY,Martha\\'s Vineyard,-70.615278,41.391667,America/New_York
MWA,Williamson Country Regional Airport,-89.0110936,37.7549569,America/Chicago
MWC,Lawrence J Timmerman Airport,-88.0344167,43.1103889,America/Chicago
MWH,Grant Co Intl,-119.32019,47.207708,America/Los_Angeles
MWL,Mineral Wells,-98.060175,32.781606,America/Chicago
MWM,Windom Municipal Airport,-95.1094083,43.9134017,America/Chicago
MXF,Maxwell Afb,-86.365778,32.382944,America/Chicago
MXY,McCarthy Airport,-142.90307372,61.4370608,America/Anchorage
MYF,Montgomery Field,117.759,32.4759,Asia/Chongqing
MYL,McCall Municipal Airport,-116.101389,44.889722,America/Denver
MYR,Myrtle Beach Intl,-78.928333,33.67975,America/New_York
MYU,Mekoryuk Airport,-166.271,60.3714,America/Anchorage
MYV,Yuba County Airport,-121.3411,39.0553,America/Los_Angeles
MZJ,Pinal Airpark,-111.325278,32.509722,America/Phoenix
N53,Stroudsburg-Pocono Airport,-75.1606789,41.0358717,America/New_York
N69,Stormville Airport,-73.7323514,41.5769708,America/New_York
N87,Trenton-Robbinsville Airport,-74.6017778,40.2139444,America/New_York
NBG,New Orleans Nas Jrb,-90.035,29.825333,America/Chicago
NBU,Naval Air Station,-87.8225,42.090556,America/Chicago
NCN,Chenega Bay Airport,-147.991944,60.077222,America/Anchorage
NEL,Lakehurst Naes,-74.353333,40.033333,America/New_York
NEW,Lakefront,-90.02825,30.0424167,America/Chicago
NFL,Fallon Nas,-118.70098,39.416584,America/Los_Angeles
NGF,Kaneohe Bay Mcaf,-157.768,21.450453,Pacific/Honolulu
NGP,Corpus Christi NAS,-97.290376,27.692701,America/Chicago
NGU,Norfolk Ns,-76.289289,36.937644,America/New_York
NGZ,"NAS Alameda",-122.3186,37.7861,America/Los_Angeles
NHK,Patuxent River Nas,-76.411781,38.285981,America/New_York
NIB,Nikolai Airport,-154.383889,63.010833,America/Anchorage
NID,China Lake Naws,-117.692039,35.685422,America/Los_Angeles
NIP,Jacksonville Nas,-81.680556,30.235834,America/New_York
NJK,El Centro Naf,-115.671667,32.829222,America/Los_Angeles
NKT,Cherry Point Mcas,-76.880733,34.900872,America/New_York
NKX,Miramar Mcas,-117.14175,32.867694,America/Los_Angeles
NLC,Lemoore Nas,-119.95208,36.333012,America/Los_Angeles
NLG,Nelson Lagoon,-161.160278,56.0075,America/Anchorage
NME,Nightmute Airport,-164.700833,60.471111,America/Anchorage
NMM,Meridian Nas,-88.555557,32.552083,America/Chicago
NNL,Nondalton Airport,-154.851667,59.966944,America/Anchorage
NOW,Port Angeles Cgas,-123.414075,48.141481,America/Los_Angeles
NPA,Pensacola Nas,-87.318647,30.352656,America/Chicago
NPZ,Porter County Municipal Airport,-87.0070833,41.4539722,America/Chicago
NQA,Millington Rgnl Jetport,-89.870278,35.356667,America/Chicago
NQI,Kingsville Nas,-97.809723,27.507223,America/Chicago
NQX,Key West Nas,-81.688889,24.575834,America/New_York
NSE,Whiting Fld Nas North,-87.021944,30.724167,America/Chicago
NTD,Point Mugu Nas,-119.12094,34.120285,America/Los_Angeles
NTU,Oceana Nas,-76.033542,36.820703,America/New_York
NUI,Nuiqsut Airport,-151.005556,70.21,America/Anchorage
NUL,Nulato Airport,-158.074167,64.729444,America/Anchorage
NUP,Nunapitchuk Airport,-162.439167,60.905833,America/Anchorage
NUQ,Moffett Federal Afld,-122.049139,37.416142,America/Los_Angeles
NUW,Whidbey Island Nas,-122.655906,48.351803,America/Los_Angeles
NXP,Twentynine Palms Eaf,-116.162203,34.296161,America/Los_Angeles
NXX,Willow Grove Nas Jrb,-75.148167,40.199833,America/New_York
NY9,Long Lake,-74.42044,43.9750617,America/New_York
NYC,All Airports,-74.005833,40.714167,America/New_York
NYG,Quantico Mcaf,-77.305333,38.501683,America/New_York
NZC,Cecil Field,-81.8767,30.2187,America/New_York
NZJ,El Toro,-117.731164,33.676132,America/Los_Angeles
NZY,North Island Nas,-117.21531,32.699219,America/Los_Angeles
O03,Morgantown Airport,-75.8704892,40.1570414,America/New_York
O27,Oakdale Airport,-120.8001944,37.7563333,America/Los_Angeles
OAJ,Albert J Ellis,-77.612139,34.829164,America/New_York
OAK,Metropolitan Oakland Intl,-122.220722,37.721278,America/Los_Angeles
OAR,Marina Muni,-121.762347,36.681878,America/Los_Angeles
OBE,County,-80.851111,27.265833,America/New_York
OBU,Kobuk Airport,-156.897222,66.912222,America/Anchorage
OCA,Key Largo,-80.274775,25.325393,America/New_York
OCF,International Airport,-82.224167,29.1725,America/New_York
OEB,Branch County Memorial Airport,-85.0522935,41.9335691,America/New_York
OFF,Offutt Afb,-95.912511,41.118332,America/Chicago
OGG,Kahului,-156.430458,20.89865,Pacific/Honolulu
OGS,Ogdensburg Intl,-75.4655,44.681854,America/New_York
OJC,Johnson County Airport,-94.4415,38.5051,America/Chicago
OKC,Will Rogers World,-97.600733,35.393089,America/Chicago
OLF,LM Clayton Airport,-105.575,48.094444,America/Denver
OLH,Old Harbor Airport,-153.269722,57.218056,America/Anchorage
OLM,Olympia Regional Airpor,-122.90254470000001,46.9694044,America/Los_Angeles
OLS,Nogales Intl,-110.84789,31.417722,America/Phoenix
OLT,San Diego Old Town Transit Center,-117.1995,32.7552,America/Los_Angeles
OLV,Olive Branch Muni,-89.783333,34.876944,America/Chicago
OMA,Eppley Afld,-95.894069,41.303167,America/Chicago
OME,Nome,-165.445247,64.512203,America/Anchorage
OMN,Ormond Beach municipal Airport,-81.06497,29.1804,America/New_York
ONH,Oneonta Municipal Airport,-75.064444,42.524722,America/New_York
ONP,Newport Municipal Airport,-124.057917,44.580361,America/Los_Angeles
ONT,Ontario Intl,-117.601194,34.056,America/Los_Angeles
OOK,Toksook Bay Airport,-165.087222,60.541389,America/Anchorage
OPF,Opa Locka,-80.278389,25.907,America/New_York
OQN,Brandywine Airport,-75.3455,39.5924,America/New_York
OQU,Quonset State Airport,-71.4121389,41.5971389,America/New_York
ORD,Chicago Ohare Intl,-87.904842,41.978603,America/Chicago
ORF,Norfolk Intl,-76.201222,36.894611,America/New_York
ORH,Worcester Regional Airport,-71.8757,42.2673,America/New_York
ORI,Port Lions Airport,-152.846111,57.885278,America/Anchorage
ORL,Executive,-81.332936,28.545464,America/New_York
ORT,Northway,-141.929136,62.961334,America/Anchorage
ORV,Robert Curtis Memorial Airport,-161.022222,66.8175,America/Anchorage
OSC,Oscoda Wurtsmith,-83.394053,44.451558,America/New_York
OSH,Wittman Regional Airport,-88.551336,44.024983,America/Chicago
OSU,Ohio State University Airport,-83.073,40.0798,America/New_York
OTH,Southwest Oregon Regional Airport,-124.246,43.4171,America/Los_Angeles
OTS,Anacortes Airport,-122.6625,48.498889,America/Los_Angeles
OTZ,Ralph Wien Mem,-162.59855,66.884678,America/Anchorage
OWB,Owensboro Daviess County Airport,-87.1668,37.7401,America/Chicago
OWD,Norwood Memorial Airport,-71.1729444,42.1905278,America/New_York
OXC,Waterbury-Oxford Airport,-73.13525,41.4785556,America/New_York
OXD,Miami University Airport,-84.7843814,39.5022607,America/New_York
OXR,Oxnard - Ventura County,-119.207222,34.200833,America/Los_Angeles
OZA,Ozona Muni,-101.202972,30.735281,America/Chicago
P08,Coolidge Municipal Airport,-111.427001953125,32.9359016418457,America/Phoenix
P52,Cottonwood Airport,-112.035003662109,34.7299995422363,America/Phoenix
PAE,Snohomish Co,-122.281564,47.906342,America/Los_Angeles
PAH,Barkley Regional Airport,-88.7729583,37.0602875,America/Chicago
PAM,Tyndall Afb,-85.575417,30.069567,America/Chicago
PAO,Palo Alto Airport of Santa Clara County,-122.1150556,37.4611111,America/Los_Angeles
PAQ,Palmer Muni,-149.088711,61.594914,America/Anchorage
PBF,Grider Fld,-91.935597,34.173142,America/Chicago
PBG,Plattsburgh Intl,-73.468139,44.650944,America/New_York
PBI,Palm Beach Intl,-80.095589,26.683161,America/New_York
PBV,St George,-169.661611,56.578344,America/Anchorage
PBX,Pike County Airport - Hatcher Field,-82.5663889,37.5617639,America/New_York
PCW,Erie-Ottawa Regional Airport,-82.8694868,41.5162703,America/New_York
PCZ,Waupaca Municipal Airport,-89.0197778,44.33325,America/Chicago
PDB,Pedro Bay Airport,-154.1325,59.782222,America/Anchorage
PDK,Dekalb-Peachtree Airport,-84.3019722,33.8756111,America/New_York
PDT,Eastern Oregon Regional Airport,-118.841389,45.695,America/Los_Angeles
PDX,Portland Intl,-122.5975,45.588722,America/Los_Angeles
PEC,Pelican Seaplane Base,-136.236389,57.955278,America/Anchorage
PEQ,Pecos Municipal Airport,-103.5107222,31.3823889,America/Chicago
PFN,Panama City Bay Co Intl,-85.682806,30.212083,America/Chicago
PGA,Page Municipal Airport,-111.4483,36.9261,America/Phoenix
PGD,Charlotte County-Punta Gorda Airport,-81.990556,26.919722,America/New_York
PGV,Pitt-Greenville Airport,-77.385278,35.635278,America/New_York
PHD,Harry Clever Field Airport,-81.4199444,40.4701667,America/New_York
PHF,Newport News Williamsburg Intl,-76.492989,37.131894,America/New_York
PHK,Pahokee Airport,-80.692,26.789,America/New_York
PHL,Philadelphia Intl,-75.241139,39.871944,America/New_York
PHN,St Clair Co Intl,-82.528862,42.910957,America/New_York
PHO,Point Hope Airport,-166.799,68.3488,America/Anchorage
PHX,Phoenix Sky Harbor Intl,-112.011583,33.434278,America/Phoenix
PIA,Peoria Regional,-89.693258,40.664203,America/Chicago
PIB,Hattiesburg Laurel Regional Airport,-89.3371,31.4671,America/Chicago
PIE,St Petersburg Clearwater Intl,-82.687389,27.910167,America/New_York
PIH,Pocatello Regional Airport,-112.596,42.9098,America/Denver
PIM,Harris County Airport,-84.8824444,32.8406944,America/New_York
PIP,Pilot Point Airport,-157.571944,57.585393,America/Anchorage
PIR,Pierre Regional Airport,-100.286,44.3827,America/Chicago
PIT,Pittsburgh Intl,-80.232872,40.491467,America/New_York
PIZ,Point Lay Lrrs,-163.005342,69.732875,America/Anchorage
PKB,Mid-Ohio Valley Regional Airport,-81.4392031,39.3451039,America/New_York
PLN,Pellston Regional Airport of Emmet County Airport,-84.7967,45.5709,America/New_York
PMB,Pembina Muni,-97.240833,48.942501,America/Chicago
PMD,Palmdale Rgnl Usaf Plt 42,-118.08456,34.629391,America/Los_Angeles
PML,Port Moller Airport,-160.560833,56.006111,America/Anchorage
PMP,Pompano Beach Airpark,-80.1110556,26.2471389,America/New_York
PNC,Ponca City Rgnl,-97.099781,36.731958,America/Chicago
PNE,Northeast Philadelphia,-75.010586,40.081944,America/New_York
PNM,Princeton Muni,-93.608217,45.559868,America/Chicago
PNS,Pensacola Rgnl,-87.186611,30.473425,America/Chicago
POB,Pope Field,-79.014472,35.170883,America/New_York
POC,Brackett Field,-117.7817778,34.0916667,America/Los_Angeles
POE,Polk Aaf,-93.191667,31.044833,America/Chicago
POF,Poplar Bluff Municipal Airport,-90.3248611,36.77394444,America/Chicago
PPC,Prospect Creek Airport,-150.643611,66.814167,America/Anchorage
PPV,Port Protection Seaplane Base,-133.61,56.328889,America/Anchorage
PQI,Northern Maine Rgnl At Presque Isle,-68.044797,46.688958,America/New_York
PQS,Pilot Station Airport,-162.899444,61.934444,America/Anchorage
PRC,Ernest A Love Fld,-112.419583,34.654472,America/Phoenix
PRL,Port Oceanic Airport,-147.8194444,60.2083333,America/Anchorage
PSC,Tri Cities Airport,-119.119,46.2647,America/Los_Angeles
PSG,Petersburg James A. Johnson,-132.945278,56.801667,America/Anchorage
PSM,Pease International Tradeport,-70.8233,43.0779,America/New_York
PSP,Palm Springs Intl,-116.506694,33.829667,America/Los_Angeles
PSX,Palacios Muni,-96.250958,28.727508,America/Chicago
PTA,Port Alsworth Airport,-154.306586,60.208281,America/Anchorage
PTB,Dinwiddie County Airport,-77.507388,37.18375,America/New_York
PTH,Port Heiden Airport,-158.633,56.9591,America/Anchorage
PTK,Oakland Co. Intl,-83.35,42.667,America/New_York
PTU,Platinum,-161.819664,59.011356,America/Anchorage
PUB,Pueblo Memorial,-104.496572,38.289085,America/Denver
PUC,Carbon County Regional-Buck Davis Field,-110.75278,39.609722,America/Denver
PUW,Pullman-Moscow Rgnl,-117.109583,46.743861,America/Los_Angeles
PVC,Provincetown Muni,-70.22139,42.071945,America/New_York
PVD,Theodore Francis Green State,-71.420383,41.732581,America/New_York
PVU,Provo Municipal Airport,-111.72222222,40.21805555,America/Denver
PWK,Chicago Executive,-87.9015376,42.1142897,America/Chicago
PWM,Portland Intl Jetport,-70.309281,43.646161,America/New_York
PWT,Bremerton National,-122.764814,47.490244,America/Los_Angeles
PYM,Plymouth Municipal Airport,-70.7287778,41.9090278,America/New_York
PYP,Centre-Piedmont-Cherokee County Regional Airport,-85.6100833,34.0899167,America/Chicago
R49,Ferry County Airport,-118.6564714,48.7182058,America/Los_Angeles
RAC,John H. Batten Airport,-87.8152,42.7605,America/Chicago
RAL,Riverside Muni,-117.445103,33.951875,America/Los_Angeles
RAP,Rapid City Regional Airport,-103.057222,44.045278,America/Denver
RBD,Dallas Executive Airport,-96.868333,32.680833,America/Chicago
RBK,French Valley Airport,-117.1284732,33.5741791,America/Los_Angeles
RBM,Robinson Aaf,-92.300153,34.850089,America/Chicago
RBN,Fort Jefferson,-82.86667,24.61667,America/New_York
RBY,Ruby Airport,-155.47,64.7272,America/Anchorage
RCA,Ellsworth Afb,-103.103567,44.145042,America/Denver
RCE,Roche Harbor Seaplane Base,-123.159722,48.608056,America/Los_Angeles
RCZ,Richmond County Airport,-79.7596111,34.8913056,America/New_York
RDD,Redding Muni,-122.293389,40.509,America/Los_Angeles
RDG,Reading Regional Carl A Spaatz Field,-75.9652,40.3785,America/New_York
RDM,Roberts Fld,-121.149964,44.254066,America/Los_Angeles
RDR,Grand Forks Afb,-97.401194,47.961098,America/Chicago
RDU,Raleigh Durham Intl,-78.787472,35.877639,America/New_York
RDV,Red Devil Airport,-157.350278,61.788056,America/Anchorage
REI,Redlands Municipal Airport,-117.146388,34.08525,America/Los_Angeles
RFD,Chicago Rockford International Airport,-89.0972222,42.1953611,America/Chicago
RHI,Rhinelander Oneida County Airport,-89.4675,45.6312,America/Chicago
RIC,Richmond Intl,-77.319667,37.505167,America/New_York
RID,Richmond Municipal Airport,-84.8427175,39.7561006,America/New_York
RIF,Richfield Minicipal Airport,-112.0989444,38.7364361,America/Denver
RIL,Garfield County Regional Airport,-107.7269444,39.5263056,America/Denver
RIR,Flabob Airport,-117.409971,33.988778,America/Los_Angeles
RIU,Rancho Murieta,-121.102778,38.486778,America/Los_Angeles
RIV,March Arb,-117.259453,33.880711,America/Los_Angeles
RIW,Riverton Regional,-108.459722,43.064167,America/Denver
RKD,Knox County Regional Airport,-69.0992303,44.0601111,America/New_York
RKH,Rock Hill York Co Bryant Airport,-81.0572,34.9878,America/New_York
RKP,Aransas County Airport,-97.0436944,28.0862222,America/Chicago
RKS,Rock Springs Sweetwater County Airport,-109.065,41.5942,America/Denver
RME,Griffiss Afld,-75.407033,43.2338,America/New_York
RMG,Richard B Russell Airport,-85.1586667,34.3507778,America/New_York
RMP,Rampart Airport,-150.140833,65.507778,America/Anchorage
RMY,Brooks Field Airport,-84.9554443,42.2511932,America/New_York
RND,Randolph Afb,-98.2789,29.529675,America/Chicago
RNM,Ramona Airport,-116.91525,33.0391667,America/Los_Angeles
RNO,Reno Tahoe Intl,-119.768108,39.499108,America/Los_Angeles
RNT,Renton,-122.21575,47.4931389,America/Los_Angeles
ROA,Roanoke Regional,-79.975417,37.325472,America/New_York
ROC,Greater Rochester Intl,-77.672389,43.118866,America/New_York
ROW,Roswell Intl Air Center,-104.530556,33.301556,America/Denver
RSH,Russian Mission Airport,-161.319444,61.775,America/Anchorage
RSJ,Rosario Seaplane Base,-122.868056,48.645556,America/Los_Angeles
RST,Rochester,-92.500014,43.908283,America/Chicago
RSW,Southwest Florida Intl,-81.755167,26.536167,America/New_York
RUT,Rutland State Airport,-72.9496,43.5294,America/New_York
RVS,Richard Lloyd Jones Jr Airport,-95.9846389,36.0396111,America/Chicago
RWI,Rocky Mount Wilson Regional Airport,-77.8919,35.8563,America/New_York
RWL,Rawlins Municipal Airport-Harvey Field,-107.19994,41.8055975,America/Denver
RYY,Cobb County Airport-Mc Collum Field,-84.5970556,34.0131569,America/New_York
S30,Lebanon State,-122.5577,44.3179,America/Los_Angeles
S40,Prosser,-119.4773,46.128,America/Los_Angeles
S46,Port O\\'Connor Airfield,-96.442859,28.429977,America/Chicago
SAA,Shively Field Airport,-106.8235264,41.4448594,America/Denver
SAC,Sacramento Executive,-121.49347,38.512524,America/Los_Angeles
SAD,Safford Regional Airport,-109.6350833,32.8533333,America/Phoenix
SAF,Santa Fe Muni,-106.089422,35.617108,America/Denver
SAN,San Diego Intl,-117.189667,32.733556,America/Los_Angeles
SAT,San Antonio Intl,-98.469778,29.533694,America/Chicago
SAV,Savannah Hilton Head Intl,-81.202139,32.127583,America/New_York
SBA,Santa Barbara Muni,-119.840372,34.426211,America/Los_Angeles
SBD,San Bernardino International Airport,-117.2348722,34.0953521,America/Los_Angeles
SBM,Sheboygan County Memorial Airport,-87.851402,43.7696,America/Chicago
SBN,South Bend Rgnl,-86.31725,41.708661,America/New_York
SBO,Emanuel Co,-82.369944,32.609139,America/New_York
SBP,San Luis County Regional Airport,-120.642,35.2368,America/Los_Angeles
SBS,Steamboat Springs Airport-Bob Adams Field,-106.8663056,40.51625,America/Denver
SBY,Salisbury Ocean City Wicomico Rgnl,-75.510289,38.340525,America/New_York
SCC,Deadhorse,-148.465167,70.19475,America/Anchorage
SCE,University Park Airport,-77.848694,40.849278,America/New_York
SCH,Stratton ANGB - Schenectady County Airpor,-73.928866666,42.85245555,America/New_York
SCK,Stockton Metropolitan,-121.238306,37.894167,America/Los_Angeles
SCM,Scammon Bay Airport,-165.571389,61.845278,America/Anchorage
SDC,Williamson-Sodus Airport,-77.119444,43.2347904,America/New_York
SDF,Louisville International Airport,-85.7364989,38.1740858,America/New_York
SDM,Brown Field Municipal Airport,-116.9801611,32.5722722,America/Los_Angeles
SDP,Sand Point Airport,-160.523,55.315,America/Anchorage
SDX,Sedona,-111.788472,34.848628,America/Phoenix
SDY,Sidney-Richland Municipal Airport,-104.1925,47.706944,America/Denver
SEA,Seattle Tacoma Intl,-122.309306,47.449,America/Los_Angeles
SEE,Gillespie,-116.9724444,32.8262222,America/Los_Angeles
SEF,Regional - Hendricks AAF,-81.342222,27.456389,America/New_York
SEM,Craig Fld,-86.987803,32.343947,America/Chicago
SES,Selfield Airport,-86.9522,32.4404,America/Chicago
SFB,Orlando Sanford Intl,-81.237489,28.777639,America/New_York
SFF,Felts Fld,-117.322558,47.682819,America/Los_Angeles
SFM,Sanford Regional,-70.708,43.39383,America/New_York
SFO,San Francisco Intl,-122.374889,37.618972,America/Los_Angeles
SFZ,North Central State,-71.491381,41.920764,America/New_York
SGF,Springfield Branson Natl,-93.388639,37.245667,America/Chicago
SGH,Springfield-Beckly Municipal Airport,-83.8401667,39.8402778,America/New_York
SGJ,St. Augustine Airport,-81.3397222,29.95925,America/New_York
SGR,Sugar Land Regional Airport,-95.6565278,29.62225,America/Chicago
SGU,St George Muni,-113.593056,37.090583,America/Denver
SGY,Skagway Airport,-135.316,59.4601,America/Anchorage
SHD,Shenandoah Valley Regional Airport,-78.896389,38.263889,America/New_York
SHG,Shungnak Airport,-157.1625,66.888056,America/Anchorage
SHH,Shishmaref Airport,-166.089,66.2496,America/Anchorage
SHR,Sheridan County Airport,-106.98,44.7692,America/Denver
SHV,Shreveport Rgnl,-93.8256,32.446629,America/Chicago
SHX,Shageluk Airport,-159.569167,62.692222,America/Anchorage
SIK,Sikeston Memorial Municipal,-89.56175,36.8988889,America/Chicago
SIT,Sitka Rocky Gutierrez,-135.361611,57.047138,America/Anchorage
SJC,Norman Y Mineta San Jose Intl,-121.929022,37.3626,America/Los_Angeles
SJT,San Angelo Rgnl Mathis Fld,-100.496306,31.35775,America/Chicago
SKA,Fairchild Afb,-117.655772,47.615058,America/Los_Angeles
SKF,Lackland Afb Kelly Fld Annex,-98.581108,29.384228,America/Chicago
SKK,Shaktoolik Airport,-161.223889,64.371111,America/Anchorage
SKY,Griffing Sandusky,-82.652333,41.433361,America/New_York
SLC,Salt Lake City Intl,-111.977772,40.788389,America/Denver
SLE,McNary Field,-123.003,44.9095,America/Los_Angeles
SLK,Adirondack Regional Airport,-74.2062,44.3853,America/New_York
SLN,Salina Municipal Airport,-97.6522,38.791,America/Chicago
SLQ,Sleetmute Airport,-157.165833,61.700566,America/Anchorage
SMD,Smith Fld,-85.152778,41.143353,America/New_York
SME,Lake Cumberland Regional Airport,-84.615556,37.053611,America/New_York
SMF,Sacramento Intl,-121.590778,38.695417,America/Los_Angeles
SMK,St. Michael Airport,-162.110278,63.49,America/Anchorage
SMN,Lemhi County Airport,-113.881389,45.123889,America/Denver
SMO,Santa Monica Municipal Airport,-118.4513056,34.0158333,America/Los_Angeles
SMX,Santa Maria Pub Cpt G Allan Hancock Airport,-120.457,34.8989,America/Los_Angeles
SNA,John Wayne Arpt Orange Co,-117.868222,33.675667,America/Los_Angeles
SNP,St Paul Island,-170.220444,57.167333,America/Anchorage
SNY,Sidney Muni Airport,-102.985,41.10167,America/Denver
SOP,Moore County Airport,-79.3887958,35.2376111,America/New_York
SOW,Show Low Regional Airport,-110.005556,34.265556,America/Phoenix
SPB,Scappoose Industrial Airpark,-122.861833,45.771028,America/Los_Angeles
SPF,Black Hills Airport-Clyde Ice Field,-103.7860053,44.4811407,America/Denver
SPG,Albert Whitted,-82.626972,27.765111,America/New_York
SPI,Abraham Lincoln Capital,-89.677889,39.8441,America/Chicago
SPS,Sheppard Afb Wichita Falls Muni,-98.491894,33.988797,America/Chicago
SPW,Spencer Muni,-95.202805,43.165527,America/Chicago
SPZ,Silver Springs Airport,-119.2511944,39.4030278,America/Los_Angeles
SQL,San Carlos Airport,-122.249444,37.511944,America/Los_Angeles
SRQ,Sarasota Bradenton Intl,-82.554389,27.395444,America/New_York
SRR,Sierra Blanca Regional Airport,-105.534751,33.46285,America/Denver
SRV,Stony River 2 Airport,-156.591111,61.7875,America/Anchorage
SSC,Shaw Afb,-80.470564,33.972719,America/New_York
SSI,McKinnon Airport,-81.3910556,31.1519722,America/New_York
STC,Saint Cloud Regional Airport,-94.059889,45.546556,America/Chicago
STE,Stevens Point Municipal Airport,-89.5302844,44.5451356,America/Chicago
STG,St. George Airport,-169.663611,56.577222,America/Anchorage
STJ,Rosecrans Mem,-94.909706,39.771944,America/Chicago
STK,Sterling Municipal Airport,-103.2648454,40.6153136,America/Denver
STL,Lambert St Louis Intl,-90.370028,38.748697,America/Chicago
STS,Charles M Schulz Sonoma Co,-122.81288,38.508978,America/Los_Angeles
SUA,Witham Field Airport,-80.221294,27.1816996,America/New_York
SUE,Door County Cherryland Airport,-87.4215556,44.8436667,America/Chicago
SUN,Friedman Mem,-114.296194,43.504444,America/Denver
SUS,Spirit Of St Louis,-90.652044,38.662119,America/Chicago
SUU,Travis Afb,-121.927464,38.262692,America/Los_Angeles
SUX,Sioux Gateway Col Bud Day Fld,-96.384367,42.402603,America/Chicago
SVA,Savoonga Airport,-170.493,63.6864,America/Anchorage
SVC,Grant County Airport,-108.156,32.6365,America/Denver
SVH,Regional Airport,-80.9538958,35.7649958,America/New_York
SVN,Hunter Aaf,-81.145683,32.01,America/New_York
SVW,Sparrevohn Lrrs,-155.574228,61.097369,America/Anchorage
SWD,Seward Airport,-149.4188122,60.1269383,America/Anchorage
SWF,Stewart Intl,-74.104839,41.504094,America/New_York
SXP,Sheldon Point Airport,-164.847778,62.520556,America/Anchorage
SXQ,Soldotna Airport,-151.0382389,60.4749583,America/Anchorage
SYA,Eareckson As,174.11362,52.712275,America/Anchorage
SYB,Seal Bay Seaplane Base,-152.5,58.166667,America/Anchorage
SYR,Syracuse Hancock Intl,-76.106311,43.111187,America/New_York
SZL,Whiteman Afb,-93.547864,38.730306,America/Chicago
TAL,Tanana Airport,-152.075833,65.179556,America/Anchorage
TAN,Taunton Municipal Airport - King Field,-71.0166453,41.8744017,America/New_York
TBN,Waynesville Rgnl Arpt At Forney Fld,-92.140736,37.741631,America/Chicago
TCC,Tucumcari Muni,-103.603186,35.182777,America/Denver
TCL,Tuscaloosa Rgnl,-87.611403,33.220627,America/Chicago
TCM,Mc Chord Afb,-122.476475,47.137678,America/Los_Angeles
TCS,Truth Or Consequences Muni,-107.27175,33.236944,America/Denver
TCT,Takotna Airport,-156.082778,62.971944,America/Anchorage
TEB,Teterboro,-74.060837,40.850103,America/New_York
TEK,Tatitlek Airport,-146.691111,60.8725,America/Anchorage
TEX,Telluride,-107.90848,37.953759,America/Denver
TIK,Tinker Afb,-97.386633,35.414739,America/Chicago
TIW,Tacoma Narrows Airport,-122.57811,47.267944,America/Los_Angeles
TIX,Space Coast Reg'l Airport,-80.7992278,28.5148,America/New_York
TKA,Talkeetna,-150.093694,62.3205,America/Anchorage
TKE,Tenakee Seaplane Base,-135.218333,57.779722,America/Anchorage
TKF,Truckee-Tahoe Airport,-120.1395628,39.3200422,America/Los_Angeles
TKI,Collin County Regional Airport at Mc Kinney,-96.5905278,33.1779444,America/Chicago
TLA,Teller Airport,-166.339444,65.240278,America/Anchorage
TLH,Tallahassee Rgnl,-84.350333,30.396528,America/New_York
TLJ,Tatalina Lrrs,-155.976525,62.894369,America/Anchorage
TLT,Tuluksak Airport,-160.969444,61.096944,America/Anchorage
TMA,Henry Tift Myers Airport,-83.488545,31.4289814,America/New_York
TMB,Kendall Tamiami Executive,-80.432777,25.647889,America/New_York
TNC,Tin City LRRS Airport,-167.921667,65.563056,America/Anchorage
TNK,Tununak Airport,-165.271667,60.575556,America/Anchorage
TNT,Dade Collier Training And Transition,-80.897,25.861806,America/New_York
TNX,Tonopah Test Range,-116.78075,37.798836,America/Los_Angeles
TOA,Zamperini Field Airport,-118.339611,33.803392,America/Los_Angeles
TOC,Toccoa RG Letourneau Field Airport,-83.2963717,34.5928117,America/New_York
TOG,Togiak Airport,-160.397,59.0528,America/Anchorage
TOL,Toledo,-83.807833,41.586806,America/New_York
TOP,Philip Billard Muni,-95.622482,39.068657,America/Chicago
TPA,Tampa Intl,-82.53325,27.975472,America/New_York
TPL,Draughon Miller Central Texas Rgnl,-97.407778,31.1525,America/Chicago
TRI,Tri-Cities Regional Airport,-82.4074167,36.4752222,America/New_York
TRM,Jacqueline Cochran Regional Airport,-116.1596667,33.626666,America/Los_Angeles
TSS,East 34th Street Heliport,-73.971944,40.7425,America/New_York
TTD,Portland Troutdale,-122.401253,45.54937,America/Los_Angeles
TTN,Trenton Mercer,-74.813469,40.276692,America/New_York
TUL,Tulsa Intl,-95.888111,36.198389,America/Chicago
TUP,Tupelo Regional Airport,-88.7699,34.2681,America/Chicago
TUS,Tucson Intl,-110.941028,32.116083,America/Phoenix
TVC,Cherry Capital Airport,-85.582235,44.741445,America/New_York
TVF,Thief River Falls,-96.185,48.065556,America/Chicago
TVI,Thomasville Regional Airport,-83.8811285,30.9017921,America/New_York
TVL,Lake Tahoe Airport,-119.995278,38.893889,America/Los_Angeles
TWA,Twin Hills Airport,-160.275,59.074444,America/Anchorage
TWD,Jefferson County Intl,-122.4838,48.0314,America/Los_Angeles
TWF,Magic Valley Regional Airport,-114.487733,42.481803,America/Denver
TXK,Texarkana Rgnl Webb Fld,-93.991028,33.453722,America/Chicago
TYE,Tyonek Airport,-151.138056,61.076667,America/Anchorage
TYR,Tyler Pounds Rgnl,-95.402386,32.354139,America/Chicago
TYS,Mc Ghee Tyson,-83.994028,35.810972,America/New_York
TZR,Bolton Field,-83.136944,39.901111,America/New_York
U76,Mountain Home Municipal Airport,-115.7305671,43.1316111,America/Denver
UCA,Union Station,-75.223333,43.104167,America/New_York
UDD,Bermuda Dunes Airport,-116.2748133,33.7484375,America/Los_Angeles
UDG,Darlington County Jetport,-79.8900608,34.4493845,America/New_York
UES,Waukesha County Airport,-88.2370556,43.0410278,America/Chicago
UGN,Waukegan Rgnl,-87.867908,42.422161,America/Chicago
UIN,Quincy Regional Baldwin Field,-91.1946,39.9427,America/Chicago
UMP,Indianapolis Metropolitan Airport,-86.045,39.935278,America/New_York
UNK,Unalakleet Airport,-160.798889,63.888333,America/Anchorage
UPP,Upolu,-155.859989,20.265256,Pacific/Honolulu
UST,St. Augustine Airport,-81.339722,29.959167,America/New_York
UT3,Hite Airport,-110.3840289,37.8916547,America/Denver
UTM,Tunica Municipal Airport,-90.3467,34.681,America/Chicago
UTO,Indian Mountain Lrrs,-153.704289,65.992794,America/Anchorage
UUK,Ugnu-Kuparuk Airport,-149.5975,70.330833,America/Anchorage
UUU,Newport State,-71.282222,41.533056,America/New_York
UVA,Garner Field,-99.748962,29.215429,America/Chicago
VAD,Moody Afb,-83.193,30.967833,America/New_York
VAK,Chevak Airport,-165.584,61.5338,America/Anchorage
VAY,South Jersey Regional Airport,-74.84575,39.9428889,America/New_York
VBG,Vandenberg Afb,-120.584306,34.737333,America/Los_Angeles
VCT,Victoria Regional Airport,-96.9185,28.8526,America/Chicago
VCV,Southern California Logistics,-117.382997,34.597453,America/Los_Angeles
VDF,Tampa Executive Airport,-82.3452778,28.0139772,America/New_York
VDZ,Valdez Pioneer Fld,-146.248342,61.133949,America/Anchorage
VEE,Venetie Airport,-146.366389,67.008611,America/Anchorage
VEL,Vernal Regional Airport,-109.51,40.440833,America/Denver
VGT,North Las Vegas Airport,-115.1944444,36.2106944,America/Los_Angeles
VIS,Visalia Municipal Airport,-119.392778,36.318611,America/Los_Angeles
VLD,Valdosta Regional Airport,-83.2767,30.7825,America/New_York
VNW,Van Wert County Airport,-84.606358,40.8638295,America/New_York
VNY,Van Nuys,-118.489972,34.209811,America/Los_Angeles
VOK,Volk Fld,-90.253433,43.938956,America/Chicago
VPC,Cartersville Airport,-84.8487067,34.1231475,America/New_York
VPS,Eglin Afb,-86.5254,30.48325,America/Chicago
VRB,Vero Beach Muni,-80.417944,27.655556,America/New_York
VSF,Hartness State,-72.517222,43.343333,America/New_York
VYS,Illinois Valley Regional,-89.153056,41.351944,America/Chicago
W04,Ocean Shores Municipal,-124.0854,46.5995,America/Los_Angeles
W13,Eagle's Nest Airport,-78.944167,38.076944,America/New_York
WAA,Wales Airport,-168.095,65.6225,America/Anchorage
WAL,Wallops Flight Facility,-75.466389,37.940194,America/New_York
WAS,All Airports,-77.035278,38.889444,America/New_York
WBB,Stebbins Airport,-162.278056,63.515833,America/Anchorage
WBQ,Beaver Airport,-147.406667,66.362222,America/Anchorage
WBU,Boulder Municipal,-105.225833,40.039444,America/Denver
WBW,Wilkes-Barre Wyoming Valley Airport,-75.8522405,41.2973074,America/New_York
WDR,Barrow County Airport,-83.6674167,33.9828611,America/New_York
WFB,Ketchikan harbor Seaplane Base,-131.663333,55.344444,America/Anchorage
WFK,Northern Aroostook Regional Airport,-68.312778,47.285556,America/New_York
WHD,Hyder Seaplane Base,-130.006667,55.903333,America/Vancouver
WHP,Whiteman Airport,-118.4134331,34.2593253,America/Los_Angeles
WIH,Wishram Amtrak Station,-120.9664,45.6576,America/Los_Angeles
WKK,Aleknagik Airport,-158.618,59.2826,America/Anchorage
WKL,Waikoloa Heliport,-155.864,19.9136,Pacific/Honolulu
WLK,Selawik Airport,-159.985833,66.6,America/Anchorage
WMO,White Mountain Airport,-163.412778,64.689167,America/Anchorage
WRB,Robins Afb,-83.59185,32.640144,America/New_York
WRG,Wrangell Airport,-132.37,56.4843,America/Anchorage
WRI,Mc Guire Afb,-74.591667,40.015556,America/New_York
WRL,Worland Municipal Airport,-107.951,43.9657,America/Denver
WSD,Condron Aaf,-106.40277,32.341484,America/Denver
WSJ,San Juan - Uganik Seaplane Base,-153.320556,57.730278,America/Anchorage
WSN,South Naknek Airport,-157.0025,58.702222,America/Anchorage
WST,Westerly State Airport,-71.803333,41.349722,America/New_York
WSX,Westsound Seaplane Base,-122.952778,48.617778,America/Los_Angeles
WTK,Noatak Airport,-162.975,67.5661,America/Anchorage
WTL,Tuntutuliak Airport,-162.666944,60.335278,America/Anchorage
WWD,Cape May Co,-74.908275,39.008507,America/New_York
WWP,North Whale Seaplane Base,-133.121667,56.116389,America/Anchorage
WWT,Newtok Airport,-164.641111,60.939167,America/Anchorage
WYS,Yellowstone Airport,-111.1175,44.688333,America/Denver
X01,Everglades Airpark,-81.3902778,25.8488611,America/New_York
X04,Apopka,-81.581667,28.707222,America/New_York
X07,Lake Wales Municipal Airport,-81.6203889,27.8938056,America/New_York
X21,Arthur Dunn Airpark,-80.83541,28.622552,America/New_York
X26,Sebastian Municipal,-80.4955833,27.81325,America/New_York
X39,Tampa North Aero Park,-82.374555,28.221278,America/New_York
X49,South Lakeland Airport,-82.0439739,27.9333581,America/New_York
X59,Valkaria Municipal,-80.5583333,27.9608611,America/New_York
XFL,Flagler County Airport,-81.1212,29.2821,America/New_York
XNA,NW Arkansas Regional,-94.3068111,36.2818694,America/Chicago
XZK,Amherst Amtrak Station AMM,-72.511389,42.375,America/New_York
Y51,Municipal Airport,-90.8964742,43.5793603,America/Chicago
Y72,Bloyer Field,-90.4806111,43.9762222,America/Chicago
YIP,Willow Run,-83.530408,42.237928,America/New_York
YKM,Yakima Air Terminal McAllister Field,-120.544,46.5682,America/Los_Angeles
YKN,Chan Gurney,-97.3969,42.8711,America/Chicago
YNG,Youngstown Warren Rgnl,-80.679097,41.260736,America/New_York
YUM,Yuma Mcas Yuma Intl,-114.60598,32.656578,America/Phoenix
Z84,Clear,-149.120144,64.301203,America/Anchorage
ZBP,Penn Station,-76.615556,39.307222,America/New_York
ZFV,Philadelphia 30th St Station,-75.182,39.9557,America/New_York
ZPH,Municipal Airport,-82.155833,28.228056,America/New_York
ZRA,Atlantic City Rail Terminal,-74.442,39.3665,America/New_York
ZRD,Train Station,-77.42945,37.5343,America/New_York
ZRP,Newark Penn Station,-74.164167,40.734722,America/New_York
ZRT,Hartford Union Station,-72.6815,41.76888,America/New_York
ZRZ,New Carrollton Rail Station,-76.8719,38.948,America/New_York
ZSF,Springfield Amtrak Station,-72.593054,42.106,America/New_York
ZSY,Scottsdale Airport,-111.9105278,33.6228889,America/Phoenix
ZTF,Stamford Amtrak Station,-73.541493,41.046937,America/New_York
ZTY,Boston Back Bay Station,-71.075,42.3478,America/New_York
ZUN,Black Rock,-108.791778,35.083228,America/Denver
ZVE,New Haven Rail Station,-72.925992,41.298669,America/New_York
ZWI,Wilmington Amtrak Station,-75.551667,39.736667,America/New_York
ZWU,Washington Union Station,-77.00643,38.89746,America/New_York
ZYP,Penn Station,-73.9935,40.7505,America/New_York
