city,state,year,population,lon,lat
"Anchorage, AK",AK,1790,0,-149.2743541,61.177549
"Birmingham, AL",AL,1790,0,-86.799047,33.5274441
"Huntsville, AL",AL,1790,0,-86.5389964,34.7842707
"Mobile, AL",AL,1790,0,-88.1002261,30.668426
"Montgomery, AL",AL,1790,0,-86.2685927,32.3462512
"Little Rock, AR",AR,1790,0,-92.358556,34.7254318
"Chandler, AZ",AZ,1790,0,-111.8549429,33.2828736
"Gilbert, AZ",AZ,1790,0,-111.7421907,33.3102088
"Glendale, AZ",AZ,1790,0,-112.1899006,33.5331113
"Mesa, AZ",AZ,1790,0,-111.7173787,33.4019259
"Peoria, AZ",AZ,1790,0,-112.3110998,33.7877083
"Phoenix, AZ",AZ,1790,0,-112.0879662,33.5721625
"Scottsdale, AZ",AZ,1790,0,-111.8236822,33.6687267
"Tempe, AZ",AZ,1790,0,-111.9317823,33.3884143
"Tucson, AZ",AZ,1790,0,-110.8710622,32.1542888
"Anaheim, CA",CA,1790,0,-117.7600707,33.8554971
"Antioch, CA",CA,1790,0,-121.7976176,37.977541
"Bakersfield, CA",CA,1790,0,-119.0182915,35.3212129
"Berkeley, CA",CA,1790,0,-122.2990661,37.8667016
"Burbank, CA",CA,1790,0,-118.3248656,34.1889857
"Carson, CA",CA,1790,0,-118.2495736,33.840367
"Chula Vista, CA",CA,1790,0,-117.0151695,32.6276701
"Compton, CA",CA,1790,0,-118.2273742,33.892614
"Concord, CA",CA,1790,0,-122.0015843,37.9721785
"Corona, CA",CA,1790,0,-117.5638573,33.862352
"Costa Mesa, CA",CA,1790,0,-117.9123358,33.6659055
"Daly City, CA",CA,1790,0,-122.4649783,37.7009406
"Downey, CA",CA,1790,0,-118.1308561,33.9382375
"El Cajon, CA",CA,1790,0,-116.9604818,32.801659
"El Monte, CA",CA,1790,0,-118.0291358,34.0746329
"Escondido, CA",CA,1790,0,-117.073223,33.1336477
"Fairfield, CA",CA,1790,0,-122.039719,38.256757
"Fontana, CA",CA,1790,0,-117.4626845,34.108793
"Fremont, CA",CA,1790,0,-121.9411173,37.4943734
"Fresno, CA",CA,1790,0,-119.794492,36.7826736
"Fullerton, CA",CA,1790,0,-117.9280246,33.8857143
"Garden Grove, CA",CA,1790,0,-117.9604719,33.7787816
"Glendale, CA",CA,1790,0,-118.2458301,34.1813929
"Hayward, CA",CA,1790,0,-122.1063408,37.6281392
"Huntington Beach, CA",CA,1790,0,-118.00933,33.6905687
"Inglewood, CA",CA,1790,0,-118.3442743,33.9560678
"Irvine, CA",CA,1790,0,-117.7712541,33.6783986
"Lancaster, CA",CA,1790,0,-118.1753054,34.693558
"Long Beach, CA",CA,1790,0,-118.1553273,33.8091018
"Los Angeles, CA",CA,1790,0,-118.4108248,34.0193936
"Mission Viejo, CA",CA,1790,0,-117.656471,33.6093352
"Modesto, CA",CA,1790,0,-120.9890523,37.6609092
"Moreno Valley, CA",CA,1790,0,-117.2056845,33.9232527
"Norwalk, CA",CA,1790,0,-118.0834464,33.9069288
"Oakland, CA",CA,1790,0,-122.2256401,37.7698573
"Oceanside, CA",CA,1790,0,-117.3062269,33.2245718
"Ontario, CA",CA,1790,0,-117.6087689,34.0395244
"Orange, CA",CA,1790,0,-117.8248761,33.8048434
"Oxnard, CA",CA,1790,0,-119.2046028,34.2023461
"Palmdale, CA",CA,1790,0,-118.1090011,34.5913162
"Pasadena, CA",CA,1790,0,-118.139593,34.160592
"Pomona, CA",CA,1790,0,-117.7612655,34.0585947
"Rancho Cucamonga, CA",CA,1790,0,-117.564207,34.1233151
"Rialto, CA",CA,1790,0,-117.3882874,34.1117839
"Richmond, CA",CA,1790,0,-122.3593535,37.9529744
"Riverside, CA",CA,1790,0,-117.3931675,33.9381433
"Sacramento, CA",CA,1790,0,-121.4686318,38.5665924
"Salinas, CA",CA,1790,0,-121.6337145,36.6901821
"San Bernardino, CA",CA,1790,0,-117.2953165,34.1392611
"San Diego, CA",CA,1790,0,-117.134993,32.8152995
"San Francisco, CA",CA,1790,0,-122.419338,37.780023
"San Jose, CA",CA,1790,0,-121.8193058,37.2968672
"San Mateo, CA",CA,1790,0,-122.3106003,37.5603104
"Santa Ana, CA",CA,1790,0,-117.8825931,33.736478
"Santa Barbara, CA",CA,1790,0,-119.7133561,34.398899
"Santa Clara, CA",CA,1790,0,-121.9679336,37.364613
"Santa Clarita, CA",CA,1790,0,-118.5047007,34.4048756
"Santa Rosa, CA",CA,1790,0,-122.7061362,38.4468158
"Simi Valley, CA",CA,1790,0,-118.7484575,34.2668875
"South Gate, CA",CA,1790,0,-118.1927614,33.9441585
"Stockton, CA",CA,1790,0,-121.3133043,37.9763417
"Sunnyvale, CA",CA,1790,0,-122.026323,37.3857838
"Thousand Oaks, CA",CA,1790,0,-118.874235,34.1932896
"Torrance, CA",CA,1790,0,-118.3414307,33.8349663
"Vacaville, CA",CA,1790,0,-121.969452,38.3573722
"Vallejo, CA",CA,1790,0,-122.2638801,38.1079111
"Ventura, CA",CA,1790,0,-119.257336,34.272907
"Visalia, CA",CA,1790,0,-119.3234086,36.3271538
"Vista, CA",CA,1790,0,-117.2386067,33.1895416
"West Covina, CA",CA,1790,0,-117.9099372,34.0559412
"Westminster, CA",CA,1790,0,-117.9937553,33.7521532
"Arvada, CO",CO,1790,0,-105.1066199,39.8097397
"Aurora, CO",CO,1790,0,-104.68974,39.6880021
"Boulder, CO",CO,1790,0,-105.2517397,40.027443
"Colorado Springs, CO",CO,1790,0,-104.760749,38.8672553
"Denver, CO",CO,1790,0,-104.8806251,39.7618487
"Fort Collins, CO",CO,1790,0,-105.0648327,40.5482164
"Lakewood, CO",CO,1790,0,-105.1175507,39.6989417
"Pueblo, CO",CO,1790,0,-104.6123784,38.2731471
"Westminster, CO",CO,1790,0,-105.0644262,39.8821898
"Bridgeport, CT",CT,1790,0,-73.1957339,41.1873858
"Hartford, CT",CT,1790,2.683,-72.6833394,41.7660453
"New Haven, CT",CT,1790,4.487,-72.924953,41.3108088
"Stamford, CT",CT,1790,0,-73.5460279,41.0798566
"Waterbury, CT",CT,1790,0,-73.0366845,41.5585001
"Washington, DC",DC,1790,0,-77.0170942,38.9041485
"Cape Coral, FL",FL,1790,0,-81.9973306,26.6431192
"Clearwater, FL",FL,1790,0,-82.7662648,27.9794747
"Coral Springs, FL",FL,1790,0,-80.2592915,26.2707826
"Fort Lauderdale, FL",FL,1790,0,-80.143896,26.141305
"Gainesville, FL",FL,1790,0,-82.345878,29.6788314
"Hialeah, FL",FL,1790,0,-80.302865,25.8699408
"Hollywood, FL",FL,1790,0,-80.1645743,26.0311054
"Jacksonville, FL",FL,1790,0,-81.6613021,30.3370193
"Miami, FL",FL,1790,0,-80.2086152,25.775163
"Miami Beach, FL",FL,1790,0,-80.1397207,25.8152651
"Orlando, FL",FL,1790,0,-81.2987497,28.4158857
"Pembroke Pines, FL",FL,1790,0,-80.3403962,26.0212389
"Port St. Lucie, FL",FL,1790,0,-80.3837622,27.2809508
"St. Petersburg, FL",FL,1790,0,-82.644055,27.7619755
"Tallahassee, FL",FL,1790,0,-84.2534191,30.4551091
"Tampa, FL",FL,1790,0,-82.4796734,27.9700861
"Athens, GA",GA,1790,0,-83.3700882,33.9495967
"Atlanta, GA",GA,1790,0,-84.4226745,33.7629088
"Augusta, GA",GA,1790,0,-82.0734219,33.3655309
"Columbus, GA",GA,1790,0,-84.874946,32.510197
"Macon, GA",GA,1790,0,-83.6489181,32.8309533
"Savannah, GA",GA,1790,0,-81.1535567,32.0025121
"Honolulu, HI",HI,1790,0,-157.8453146,21.3258516
"Cedar Rapids, IA",IA,1790,0,-91.6777599,41.9670481
"Davenport, IA",IA,1790,0,-90.6039968,41.5541036
"Des Moines, IA",IA,1790,0,-93.616708,41.5739461
"Boise, ID",ID,1790,0,-116.2310843,43.5984881
"Aurora, IL",IL,1790,0,-88.290099,41.763455
"Chicago, IL",IL,1790,0,-87.6818441,41.8375511
"Elgin, IL",IL,1790,0,-88.3217094,42.0396386
"Joliet, IL",IL,1790,0,-88.1583542,41.5180664
"Naperville, IL",IL,1790,0,-88.162019,41.7491725
"Peoria, IL",IL,1790,0,-89.6170968,40.7523087
"Rockford, IL",IL,1790,0,-89.0628271,42.2633938
"Springfield, IL",IL,1790,0,-89.6708323,39.7639077
"Waukegan, IL",IL,1790,0,-87.8708984,42.3694469
"Evansville, IN",IN,1790,0,-87.534703,37.9877339
"Fort Wayne, IN",IN,1790,0,-85.14388,41.088172900000004
"Gary, IN",IN,1790,0,-87.3448535,41.5958827
"Indianapolis, IN",IN,1790,0,-86.1459355,39.7766644
"South Bend, IN",IN,1790,0,-86.269043,41.6768497
"Kansas City, KS",KS,1790,0,-94.7417813,39.1225389
"Olathe, KS",KS,1790,0,-94.8188482,38.8842791
"Overland Park, KS",KS,1790,0,-94.6905839,38.8890422
"Topeka, KS",KS,1790,0,-95.6948257,39.03617
"Wichita, KS",KS,1790,0,-97.3426776,37.6906938
"Lexington, KY",KY,1790,0.8,-84.4584429,38.0401572
"Louisville, KY",KY,1790,0.2,-85.6667077,38.1780769
"Baton Rouge, LA",LA,1790,0,-91.1258993,30.4484535
"Lafayette, LA",LA,1790,0,-92.0313943,30.2115733
"New Orleans, LA",LA,1790,0,-89.9390074,30.0686361
"Shreveport, LA",LA,1790,0,-93.7926845,32.4670204
"Boston, MA",MA,1790,18.32,-71.0201725,42.33196
"Brockton, MA",MA,1790,0,-71.0246378,42.082543
"Cambridge, MA",MA,1790,0,-71.1182745,42.3759674
"Fall River, MA",MA,1790,0,-71.0941619,41.7253505
"Lowell, MA",MA,1790,0,-71.3221073,42.638893
"Lynn, MA",MA,1790,0,-70.9621851,42.4748618
"New Bedford, MA",MA,1790,0,-70.9379126,41.6613028
"Quincy, MA",MA,1790,0,-71.0093968,42.2609151
"Springfield, MA",MA,1790,1.6,-72.5399783,42.115454
"Worcester, MA",MA,1790,2.1,-71.8077831,42.2694781
"Baltimore, MD",MD,1790,13.503,-76.6105159,39.3002135
"Ann Arbor, MI",MI,1790,0,-83.7313328,42.2756414
"Dearborn, MI",MI,1790,0,-83.2114879,42.3130574
"Detroit, MI",MI,1790,0,-83.1022365,42.3830375
"Flint, MI",MI,1790,0,-83.6919833,43.0244249
"Grand Rapids, MI",MI,1790,0,-85.6555701,42.961156
"Lansing, MI",MI,1790,0,-84.5562219,42.7097871
"Livonia, MI",MI,1790,0,-83.3723195,42.3971831
"Sterling Heights, MI",MI,1790,0,-83.0303162,42.5812062
"Warren, MI",MI,1790,0,-83.0250007,42.4929044
"Westland, MI",MI,1790,0,-83.3807781,42.3191725
"Duluth, MN",MN,1790,0,-92.1187097,46.783229
"Minneapolis, MN",MN,1790,0,-93.2682835,44.9633235
"St. Paul, MN",MN,1790,0,-93.1038552,44.9488695
"Independence, MO",MO,1790,0,-94.3512918,39.0852578
"Kansas City, MO",MO,1790,0,-94.5511362,39.125212
"Springfield, MO",MO,1790,0,-93.2913048,37.194152
"St. Louis, MO",MO,1790,0,-90.2445816,38.6356988
"Jackson, MS",MS,1790,0,-90.2128226,32.3158308
"Billings, MT",MT,1790,0,-108.5498909,45.7895184
"Cary, NC",NC,1790,0,-78.8140795,35.7821217
"Charlotte, NC",NC,1790,0,-80.8307389,35.2087069
"Durham, NC",NC,1790,0,-78.9056471,35.9809638
"Fayetteville, NC",NC,1790,0,-78.9802627,35.0851098
"Greensboro, NC",NC,1790,0,-79.8271079,36.0964835
"Raleigh, NC",NC,1790,0,-78.6414394,35.8302035
"Winston-Salem, NC",NC,1790,0,-80.2605782,36.1032616
"Fargo, ND",ND,1790,0,-96.8290052,46.8652063
"Lincoln, NE",NE,1790,0,-96.6803544,40.8089574
"Omaha, NE",NE,1790,0,-96.041926900000007,41.2646751
"Manchester, NH",NH,1790,0,-71.4438932,42.9846891
"Nashua, NH",NH,1790,0,-71.4905435,42.7490744
"Elizabeth, NJ",NJ,1790,0,-74.19353,40.6662613
"Jersey City, NJ",NJ,1790,0,-74.0647599,40.7114174
"Newark, NJ",NJ,1790,0,-74.1725735,40.7242204
"Paterson, NJ",NJ,1790,0,-74.1628255,40.9147462
"Albuquerque, NM",NM,1790,0,-106.6473884,35.1055517
"Henderson, NV",NV,1790,0,-115.0374619,36.0122334
"Las Vegas, NV",NV,1790,0,-115.2640448,36.2277116
"North Las Vegas, NV",NV,1790,0,-115.0892625,36.2829735
"Reno, NV",NV,1790,0,-119.7765384,39.4744867
"Albany, NY",NY,1790,3.498,-73.7983532,42.6657453
"Buffalo, NY",NY,1790,0,-78.8596862,42.8924919
"New York City, NY",NY,1790,33.131,-73.9385004,40.6642738
"Rochester, NY",NY,1790,0,-77.6168907,43.1699272
"Syracuse, NY",NY,1790,0,-76.1435544,43.0409981
"Yonkers, NY",NY,1790,0,-73.8674464,40.9458622
"Akron, OH",OH,1790,0,-81.5214295,41.0804559
"Cincinnati, OH",OH,1790,0,-84.5064465,39.1399019
"Cleveland, OH",OH,1790,0,-81.6794861,41.4781381
"Columbus, OH",OH,1790,0,-82.9850438,39.9847989
"Dayton, OH",OH,1790,0,-84.1996317,39.7773943
"Toledo, OH",OH,1790,0,-83.5818608,41.664071
"Lawton, OK",OK,1790,0,-98.4204004,34.6170477
"Norman, OK",OK,1790,0,-97.3453056,35.2405774
"Oklahoma City, OK",OK,1790,0,-97.5136565,35.4670795
"Tulsa, OK",OK,1790,0,-95.9023162,36.1279488
"Eugene, OR",OR,1790,0,-123.1162068,44.0567484
"Gresham, OR",OR,1790,0,-122.4416088,45.502319
"Portland, OR",OR,1790,0,-122.649971,45.5369506
"Salem, OR",OR,1790,0,-123.0231194,44.9236937
"Allentown, PA",PA,1790,0,-75.4781595,40.5939656
"Erie, PA",PA,1790,0,-80.0735032,42.1165941
"Philadelphia, PA",PA,1790,28.522,-75.1333459,40.0093755
"Pittsburgh, PA",PA,1790,0,-79.9765919,40.4397525
"Providence, RI",RI,1790,6.38,-71.4187795,41.823055600000004
"Charleston, SC",SC,1790,16.359,-79.9589267,32.8179219
"Columbia, SC",SC,1790,0,-80.8965664,34.0297833
"Sioux Falls, SD",SD,1790,0,-96.7319985,43.5383351
"Chattanooga, TN",TN,1790,0,-85.2470649,35.0664635
"Clarksville, TN",TN,1790,0,-87.3452162,36.5664303
"Knoxville, TN",TN,1790,0,-83.9464787,35.9708752
"Memphis, TN",TN,1790,0,-89.9784984,35.1035431
"Nashville, TN",TN,1790,0,-86.7850016,36.1718001
"Abilene, TX",TX,1790,0,-99.7381473,32.4545143
"Amarillo, TX",TX,1790,0,-101.8287459,35.1978395
"Arlington, TX",TX,1790,0,-97.1246912,32.7007082
"Austin, TX",TX,1790,0,-97.7559964,30.3071816
"Beaumont, TX",TX,1790,0,-94.1457737,30.0843427
"Brownsville, TX",TX,1790,0,-97.4538263,26.0183263
"Carrollton, TX",TX,1790,0,-96.8997702,32.9883599
"Corpus Christi, TX",TX,1790,0,-97.396259,27.804553
"Dallas, TX",TX,1790,0,-96.7655033,32.794176
"El Paso, TX",TX,1790,0,-106.426979,31.8483598
"Fort Worth, TX",TX,1790,0,-97.3463354,32.7795423
"Garland, TX",TX,1790,0,-96.6303571,32.9098261
"Grand Prairie, TX",TX,1790,0,-97.0209951,32.6841931
"Houston, TX",TX,1790,0,-95.3863425,29.7804724
"Irving, TX",TX,1790,0,-96.9700224,32.8577478
"Killeen, TX",TX,1790,0,-97.731952,31.0776691
"Laredo, TX",TX,1790,0,-99.4869309,27.5476811
"Lubbock, TX",TX,1790,0,-101.8866773,33.5664787
"Mcallen, TX",TX,1790,0,-98.2461453,26.2185125
"Mesquite, TX",TX,1790,0,-96.5924264,32.763903
"Midland, TX",TX,1790,0,-102.1096969,32.0299306
"Odessa, TX",TX,1790,0,-102.3434058,31.8803778
"Pasadena, TX",TX,1790,0,-95.1504783,29.6582634
"Plano, TX",TX,1790,0,-96.747944,33.0507687
"Richardson, TX",TX,1790,0,-96.7080688,32.9722914
"San Angelo, TX",TX,1790,0,-100.4518503,31.4389124
"San Antonio, TX",TX,1790,0,-98.5251419,29.4724026
"Waco, TX",TX,1790,0,-97.1860267,31.5601108
"Wichita Falls, TX",TX,1790,0,-98.525854,33.9066992
"Provo, UT",UT,1790,0,-111.6448069,40.2453301
"Salt Lake City, UT",UT,1790,0,-111.9314142,40.7785197
"Sandy, UT",UT,1790,0,-111.8522856,40.5715632
"West Valley City, UT",UT,1790,0,-112.0117586,40.6884927
"Alexandria, VA",VA,1790,2.748,-77.0820263,38.8183429
"Chesapeake, VA",VA,1790,0,-76.3017884,36.6793761
"Hampton, VA",VA,1790,0,-76.2971486,37.0480303
"Newport News, VA",VA,1790,0,-76.5217187,37.0759784
"Norfolk, VA",VA,1790,2.959,-76.2446413,36.9230149
"Portsmouth, VA",VA,1790,0,-76.3562686,36.8594298
"Richmond, VA",VA,1790,3.761,-77.4760085,37.531399
"Roanoke, VA",VA,1790,0,-79.9584716,37.2778301
"Virginia Beach, VA",VA,1790,0,-76.0240202,36.7793219
"Bellevue, WA",WA,1790,0,-122.1564895,47.5978391
"Everett, WA",WA,1790,0,-122.1742234,48.0032673
"Seattle, WA",WA,1790,0,-122.3508761,47.6204993
"Spokane, WA",WA,1790,0,-117.4165955,47.6735545
"Tacoma, WA",WA,1790,0,-122.4598318,47.2521991
"Vancouver, WA",WA,1790,0,-122.5965165,45.6372364
"Green Bay, WI",WI,1790,0,-87.9841686,44.5206763
"Kenosha, WI",WI,1790,0,-87.8736961,42.5847398
"Madison, WI",WI,1790,0,-89.4301208,43.0878055
"Milwaukee, WI",WI,1790,0,-87.9666952,43.0633484
"Arden-Arcade, CA",CA,1790,NA,NA,NA
"East Los Angeles, CA",CA,1790,NA,NA,NA
"Metairie, LA",LA,1790,NA,NA,NA
"Columbia, MD",MD,1790,NA,NA,NA
"Clinton, MI",MI,1790,NA,NA,NA
"Edison, NJ",NJ,1790,NA,NA,NA
"Toms River, NJ",NJ,1790,NA,NA,NA
"Paradise, NV",NV,1790,NA,NA,NA
"Spring Valley, NV",NV,1790,NA,NA,NA
"Sunrise Manor, NV",NV,1790,NA,NA,NA
"Arlington, VA",VA,1790,NA,NA,NA
"Anchorage, AK",AK,1800,0,-149.2743541,61.177549
"Birmingham, AL",AL,1800,0,-86.799047,33.5274441
"Huntsville, AL",AL,1800,0,-86.5389964,34.7842707
"Mobile, AL",AL,1800,0,-88.1002261,30.668426
"Montgomery, AL",AL,1800,0,-86.2685927,32.3462512
"Little Rock, AR",AR,1800,0,-92.358556,34.7254318
"Chandler, AZ",AZ,1800,0,-111.8549429,33.2828736
"Gilbert, AZ",AZ,1800,0,-111.7421907,33.3102088
"Glendale, AZ",AZ,1800,0,-112.1899006,33.5331113
"Mesa, AZ",AZ,1800,0,-111.7173787,33.4019259
"Peoria, AZ",AZ,1800,0,-112.3110998,33.7877083
"Phoenix, AZ",AZ,1800,0,-112.0879662,33.5721625
"Scottsdale, AZ",AZ,1800,0,-111.8236822,33.6687267
"Tempe, AZ",AZ,1800,0,-111.9317823,33.3884143
"Tucson, AZ",AZ,1800,0,-110.8710622,32.1542888
"Anaheim, CA",CA,1800,0,-117.7600707,33.8554971
"Antioch, CA",CA,1800,0,-121.7976176,37.977541
"Bakersfield, CA",CA,1800,0,-119.0182915,35.3212129
"Berkeley, CA",CA,1800,0,-122.2990661,37.8667016
"Burbank, CA",CA,1800,0,-118.3248656,34.1889857
"Carson, CA",CA,1800,0,-118.2495736,33.840367
"Chula Vista, CA",CA,1800,0,-117.0151695,32.6276701
"Compton, CA",CA,1800,0,-118.2273742,33.892614
"Concord, CA",CA,1800,0,-122.0015843,37.9721785
"Corona, CA",CA,1800,0,-117.5638573,33.862352
"Costa Mesa, CA",CA,1800,0,-117.9123358,33.6659055
"Daly City, CA",CA,1800,0,-122.4649783,37.7009406
"Downey, CA",CA,1800,0,-118.1308561,33.9382375
"El Cajon, CA",CA,1800,0,-116.9604818,32.801659
"El Monte, CA",CA,1800,0,-118.0291358,34.0746329
"Escondido, CA",CA,1800,0,-117.073223,33.1336477
"Fairfield, CA",CA,1800,0,-122.039719,38.256757
"Fontana, CA",CA,1800,0,-117.4626845,34.108793
"Fremont, CA",CA,1800,0,-121.9411173,37.4943734
"Fresno, CA",CA,1800,0,-119.794492,36.7826736
"Fullerton, CA",CA,1800,0,-117.9280246,33.8857143
"Garden Grove, CA",CA,1800,0,-117.9604719,33.7787816
"Glendale, CA",CA,1800,0,-118.2458301,34.1813929
"Hayward, CA",CA,1800,0,-122.1063408,37.6281392
"Huntington Beach, CA",CA,1800,0,-118.00933,33.6905687
"Inglewood, CA",CA,1800,0,-118.3442743,33.9560678
"Irvine, CA",CA,1800,0,-117.7712541,33.6783986
"Lancaster, CA",CA,1800,0,-118.1753054,34.693558
"Long Beach, CA",CA,1800,0,-118.1553273,33.8091018
"Los Angeles, CA",CA,1800,0,-118.4108248,34.0193936
"Mission Viejo, CA",CA,1800,0,-117.656471,33.6093352
"Modesto, CA",CA,1800,0,-120.9890523,37.6609092
"Moreno Valley, CA",CA,1800,0,-117.2056845,33.9232527
"Norwalk, CA",CA,1800,0,-118.0834464,33.9069288
"Oakland, CA",CA,1800,0,-122.2256401,37.7698573
"Oceanside, CA",CA,1800,0,-117.3062269,33.2245718
"Ontario, CA",CA,1800,0,-117.6087689,34.0395244
"Orange, CA",CA,1800,0,-117.8248761,33.8048434
"Oxnard, CA",CA,1800,0,-119.2046028,34.2023461
"Palmdale, CA",CA,1800,0,-118.1090011,34.5913162
"Pasadena, CA",CA,1800,0,-118.139593,34.160592
"Pomona, CA",CA,1800,0,-117.7612655,34.0585947
"Rancho Cucamonga, CA",CA,1800,0,-117.564207,34.1233151
"Rialto, CA",CA,1800,0,-117.3882874,34.1117839
"Richmond, CA",CA,1800,0,-122.3593535,37.9529744
"Riverside, CA",CA,1800,0,-117.3931675,33.9381433
"Sacramento, CA",CA,1800,0,-121.4686318,38.5665924
"Salinas, CA",CA,1800,0,-121.6337145,36.6901821
"San Bernardino, CA",CA,1800,0,-117.2953165,34.1392611
"San Diego, CA",CA,1800,0,-117.134993,32.8152995
"San Francisco, CA",CA,1800,0,-122.419338,37.780023
"San Jose, CA",CA,1800,0,-121.8193058,37.2968672
"San Mateo, CA",CA,1800,0,-122.3106003,37.5603104
"Santa Ana, CA",CA,1800,0,-117.8825931,33.736478
"Santa Barbara, CA",CA,1800,0,-119.7133561,34.398899
"Santa Clara, CA",CA,1800,0,-121.9679336,37.364613
"Santa Clarita, CA",CA,1800,0,-118.5047007,34.4048756
"Santa Rosa, CA",CA,1800,0,-122.7061362,38.4468158
"Simi Valley, CA",CA,1800,0,-118.7484575,34.2668875
"South Gate, CA",CA,1800,0,-118.1927614,33.9441585
"Stockton, CA",CA,1800,0,-121.3133043,37.9763417
"Sunnyvale, CA",CA,1800,0,-122.026323,37.3857838
"Thousand Oaks, CA",CA,1800,0,-118.874235,34.1932896
"Torrance, CA",CA,1800,0,-118.3414307,33.8349663
"Vacaville, CA",CA,1800,0,-121.969452,38.3573722
"Vallejo, CA",CA,1800,0,-122.2638801,38.1079111
"Ventura, CA",CA,1800,0,-119.257336,34.272907
"Visalia, CA",CA,1800,0,-119.3234086,36.3271538
"Vista, CA",CA,1800,0,-117.2386067,33.1895416
"West Covina, CA",CA,1800,0,-117.9099372,34.0559412
"Westminster, CA",CA,1800,0,-117.9937553,33.7521532
"Arvada, CO",CO,1800,0,-105.1066199,39.8097397
"Aurora, CO",CO,1800,0,-104.68974,39.6880021
"Boulder, CO",CO,1800,0,-105.2517397,40.027443
"Colorado Springs, CO",CO,1800,0,-104.760749,38.8672553
"Denver, CO",CO,1800,0,-104.8806251,39.7618487
"Fort Collins, CO",CO,1800,0,-105.0648327,40.5482164
"Lakewood, CO",CO,1800,0,-105.1175507,39.6989417
"Pueblo, CO",CO,1800,0,-104.6123784,38.2731471
"Westminster, CO",CO,1800,0,-105.0644262,39.8821898
"Bridgeport, CT",CT,1800,0,-73.1957339,41.1873858
"Hartford, CT",CT,1800,3.523,-72.6833394,41.7660453
"New Haven, CT",CT,1800,4.049,-72.924953,41.3108088
"Stamford, CT",CT,1800,0,-73.5460279,41.0798566
"Waterbury, CT",CT,1800,0,-73.0366845,41.5585001
"Washington, DC",DC,1800,3.21,-77.0170942,38.9041485
"Cape Coral, FL",FL,1800,0,-81.9973306,26.6431192
"Clearwater, FL",FL,1800,0,-82.7662648,27.9794747
"Coral Springs, FL",FL,1800,0,-80.2592915,26.2707826
"Fort Lauderdale, FL",FL,1800,0,-80.143896,26.141305
"Gainesville, FL",FL,1800,0,-82.345878,29.6788314
"Hialeah, FL",FL,1800,0,-80.302865,25.8699408
"Hollywood, FL",FL,1800,0,-80.1645743,26.0311054
"Jacksonville, FL",FL,1800,0,-81.6613021,30.3370193
"Miami, FL",FL,1800,0,-80.2086152,25.775163
"Miami Beach, FL",FL,1800,0,-80.1397207,25.8152651
"Orlando, FL",FL,1800,0,-81.2987497,28.4158857
"Pembroke Pines, FL",FL,1800,0,-80.3403962,26.0212389
"Port St. Lucie, FL",FL,1800,0,-80.3837622,27.2809508
"St. Petersburg, FL",FL,1800,0,-82.644055,27.7619755
"Tallahassee, FL",FL,1800,0,-84.2534191,30.4551091
"Tampa, FL",FL,1800,0,-82.4796734,27.9700861
"Athens, GA",GA,1800,0,-83.3700882,33.9495967
"Atlanta, GA",GA,1800,0,-84.4226745,33.7629088
"Augusta, GA",GA,1800,0,-82.0734219,33.3655309
"Columbus, GA",GA,1800,0,-84.874946,32.510197
"Macon, GA",GA,1800,0,-83.6489181,32.8309533
"Savannah, GA",GA,1800,5.146,-81.1535567,32.0025121
"Honolulu, HI",HI,1800,0,-157.8453146,21.3258516
"Cedar Rapids, IA",IA,1800,0,-91.6777599,41.9670481
"Davenport, IA",IA,1800,0,-90.6039968,41.5541036
"Des Moines, IA",IA,1800,0,-93.616708,41.5739461
"Boise, ID",ID,1800,0,-116.2310843,43.5984881
"Aurora, IL",IL,1800,0,-88.290099,41.763455
"Chicago, IL",IL,1800,0,-87.6818441,41.8375511
"Elgin, IL",IL,1800,0,-88.3217094,42.0396386
"Joliet, IL",IL,1800,0,-88.1583542,41.5180664
"Naperville, IL",IL,1800,0,-88.162019,41.7491725
"Peoria, IL",IL,1800,0,-89.6170968,40.7523087
"Rockford, IL",IL,1800,0,-89.0628271,42.2633938
"Springfield, IL",IL,1800,0,-89.6708323,39.7639077
"Waukegan, IL",IL,1800,0,-87.8708984,42.3694469
"Evansville, IN",IN,1800,0,-87.534703,37.9877339
"Fort Wayne, IN",IN,1800,0,-85.14388,41.088172900000004
"Gary, IN",IN,1800,0,-87.3448535,41.5958827
"Indianapolis, IN",IN,1800,0,-86.1459355,39.7766644
"South Bend, IN",IN,1800,0,-86.269043,41.6768497
"Kansas City, KS",KS,1800,0,-94.7417813,39.1225389
"Olathe, KS",KS,1800,0,-94.8188482,38.8842791
"Overland Park, KS",KS,1800,0,-94.6905839,38.8890422
"Topeka, KS",KS,1800,0,-95.6948257,39.03617
"Wichita, KS",KS,1800,0,-97.3426776,37.6906938
"Lexington, KY",KY,1800,1.8,-84.4584429,38.0401572
"Louisville, KY",KY,1800,0.4,-85.6667077,38.1780769
"Baton Rouge, LA",LA,1800,0,-91.1258993,30.4484535
"Lafayette, LA",LA,1800,0,-92.0313943,30.2115733
"New Orleans, LA",LA,1800,0,-89.9390074,30.0686361
"Shreveport, LA",LA,1800,0,-93.7926845,32.4670204
"Boston, MA",MA,1800,24.937,-71.0201725,42.33196
"Brockton, MA",MA,1800,0,-71.0246378,42.082543
"Cambridge, MA",MA,1800,0,-71.1182745,42.3759674
"Fall River, MA",MA,1800,0,-71.0941619,41.7253505
"Lowell, MA",MA,1800,0,-71.3221073,42.638893
"Lynn, MA",MA,1800,0,-70.9621851,42.4748618
"New Bedford, MA",MA,1800,4.361,-70.9379126,41.6613028
"Quincy, MA",MA,1800,0,-71.0093968,42.2609151
"Springfield, MA",MA,1800,2.3,-72.5399783,42.115454
"Worcester, MA",MA,1800,2.4,-71.8077831,42.2694781
"Baltimore, MD",MD,1800,26.514,-76.6105159,39.3002135
"Ann Arbor, MI",MI,1800,0,-83.7313328,42.2756414
"Dearborn, MI",MI,1800,0,-83.2114879,42.3130574
"Detroit, MI",MI,1800,0,-83.1022365,42.3830375
"Flint, MI",MI,1800,0,-83.6919833,43.0244249
"Grand Rapids, MI",MI,1800,0,-85.6555701,42.961156
"Lansing, MI",MI,1800,0,-84.5562219,42.7097871
"Livonia, MI",MI,1800,0,-83.3723195,42.3971831
"Sterling Heights, MI",MI,1800,0,-83.0303162,42.5812062
"Warren, MI",MI,1800,0,-83.0250007,42.4929044
"Westland, MI",MI,1800,0,-83.3807781,42.3191725
"Duluth, MN",MN,1800,0,-92.1187097,46.783229
"Minneapolis, MN",MN,1800,0,-93.2682835,44.9633235
"St. Paul, MN",MN,1800,0,-93.1038552,44.9488695
"Independence, MO",MO,1800,0,-94.3512918,39.0852578
"Kansas City, MO",MO,1800,0,-94.5511362,39.125212
"Springfield, MO",MO,1800,0,-93.2913048,37.194152
"St. Louis, MO",MO,1800,0,-90.2445816,38.6356988
"Jackson, MS",MS,1800,0,-90.2128226,32.3158308
"Billings, MT",MT,1800,0,-108.5498909,45.7895184
"Cary, NC",NC,1800,0,-78.8140795,35.7821217
"Charlotte, NC",NC,1800,0,-80.8307389,35.2087069
"Durham, NC",NC,1800,0,-78.9056471,35.9809638
"Fayetteville, NC",NC,1800,0,-78.9802627,35.0851098
"Greensboro, NC",NC,1800,0,-79.8271079,36.0964835
"Raleigh, NC",NC,1800,0.7,-78.6414394,35.8302035
"Winston-Salem, NC",NC,1800,0,-80.2605782,36.1032616
"Fargo, ND",ND,1800,0,-96.8290052,46.8652063
"Lincoln, NE",NE,1800,0,-96.6803544,40.8089574
"Omaha, NE",NE,1800,0,-96.041926900000007,41.2646751
"Manchester, NH",NH,1800,0,-71.4438932,42.9846891
"Nashua, NH",NH,1800,0,-71.4905435,42.7490744
"Elizabeth, NJ",NJ,1800,0,-74.19353,40.6662613
"Jersey City, NJ",NJ,1800,0,-74.0647599,40.7114174
"Newark, NJ",NJ,1800,0,-74.1725735,40.7242204
"Paterson, NJ",NJ,1800,0,-74.1628255,40.9147462
"Albuquerque, NM",NM,1800,0,-106.6473884,35.1055517
"Henderson, NV",NV,1800,0,-115.0374619,36.0122334
"Las Vegas, NV",NV,1800,0,-115.2640448,36.2277116
"North Las Vegas, NV",NV,1800,0,-115.0892625,36.2829735
"Reno, NV",NV,1800,0,-119.7765384,39.4744867
"Albany, NY",NY,1800,5.289,-73.7983532,42.6657453
"Buffalo, NY",NY,1800,0,-78.8596862,42.8924919
"New York City, NY",NY,1800,60.515,-73.9385004,40.6642738
"Rochester, NY",NY,1800,0,-77.6168907,43.1699272
"Syracuse, NY",NY,1800,0,-76.1435544,43.0409981
"Yonkers, NY",NY,1800,0,-73.8674464,40.9458622
"Akron, OH",OH,1800,0,-81.5214295,41.0804559
"Cincinnati, OH",OH,1800,0,-84.5064465,39.1399019
"Cleveland, OH",OH,1800,0,-81.6794861,41.4781381
"Columbus, OH",OH,1800,0,-82.9850438,39.9847989
"Dayton, OH",OH,1800,0,-84.1996317,39.7773943
"Toledo, OH",OH,1800,0,-83.5818608,41.664071
"Lawton, OK",OK,1800,0,-98.4204004,34.6170477
"Norman, OK",OK,1800,0,-97.3453056,35.2405774
"Oklahoma City, OK",OK,1800,0,-97.5136565,35.4670795
"Tulsa, OK",OK,1800,0,-95.9023162,36.1279488
"Eugene, OR",OR,1800,0,-123.1162068,44.0567484
"Gresham, OR",OR,1800,0,-122.4416088,45.502319
"Portland, OR",OR,1800,0,-122.649971,45.5369506
"Salem, OR",OR,1800,0,-123.0231194,44.9236937
"Allentown, PA",PA,1800,0,-75.4781595,40.5939656
"Erie, PA",PA,1800,0.1,-80.0735032,42.1165941
"Philadelphia, PA",PA,1800,41.22,-75.1333459,40.0093755
"Pittsburgh, PA",PA,1800,0,-79.9765919,40.4397525
"Providence, RI",RI,1800,7.614,-71.4187795,41.823055600000004
"Charleston, SC",SC,1800,18.824,-79.9589267,32.8179219
"Columbia, SC",SC,1800,0,-80.8965664,34.0297833
"Sioux Falls, SD",SD,1800,0,-96.7319985,43.5383351
"Chattanooga, TN",TN,1800,0,-85.2470649,35.0664635
"Clarksville, TN",TN,1800,0,-87.3452162,36.5664303
"Knoxville, TN",TN,1800,0,-83.9464787,35.9708752
"Memphis, TN",TN,1800,0,-89.9784984,35.1035431
"Nashville, TN",TN,1800,0.3,-86.7850016,36.1718001
"Abilene, TX",TX,1800,0,-99.7381473,32.4545143
"Amarillo, TX",TX,1800,0,-101.8287459,35.1978395
"Arlington, TX",TX,1800,0,-97.1246912,32.7007082
"Austin, TX",TX,1800,0,-97.7559964,30.3071816
"Beaumont, TX",TX,1800,0,-94.1457737,30.0843427
"Brownsville, TX",TX,1800,0,-97.4538263,26.0183263
"Carrollton, TX",TX,1800,0,-96.8997702,32.9883599
"Corpus Christi, TX",TX,1800,0,-97.396259,27.804553
"Dallas, TX",TX,1800,0,-96.7655033,32.794176
"El Paso, TX",TX,1800,0,-106.426979,31.8483598
"Fort Worth, TX",TX,1800,0,-97.3463354,32.7795423
"Garland, TX",TX,1800,0,-96.6303571,32.9098261
"Grand Prairie, TX",TX,1800,0,-97.0209951,32.6841931
"Houston, TX",TX,1800,0,-95.3863425,29.7804724
"Irving, TX",TX,1800,0,-96.9700224,32.8577478
"Killeen, TX",TX,1800,0,-97.731952,31.0776691
"Laredo, TX",TX,1800,0,-99.4869309,27.5476811
"Lubbock, TX",TX,1800,0,-101.8866773,33.5664787
"Mcallen, TX",TX,1800,0,-98.2461453,26.2185125
"Mesquite, TX",TX,1800,0,-96.5924264,32.763903
"Midland, TX",TX,1800,0,-102.1096969,32.0299306
"Odessa, TX",TX,1800,0,-102.3434058,31.8803778
"Pasadena, TX",TX,1800,0,-95.1504783,29.6582634
"Plano, TX",TX,1800,0,-96.747944,33.0507687
"Richardson, TX",TX,1800,0,-96.7080688,32.9722914
"San Angelo, TX",TX,1800,0,-100.4518503,31.4389124
"San Antonio, TX",TX,1800,0,-98.5251419,29.4724026
"Waco, TX",TX,1800,0,-97.1860267,31.5601108
"Wichita Falls, TX",TX,1800,0,-98.525854,33.9066992
"Provo, UT",UT,1800,0,-111.6448069,40.2453301
"Salt Lake City, UT",UT,1800,0,-111.9314142,40.7785197
"Sandy, UT",UT,1800,0,-111.8522856,40.5715632
"West Valley City, UT",UT,1800,0,-112.0117586,40.6884927
"Alexandria, VA",VA,1800,5,-77.0820263,38.8183429
"Chesapeake, VA",VA,1800,0,-76.3017884,36.6793761
"Hampton, VA",VA,1800,0,-76.2971486,37.0480303
"Newport News, VA",VA,1800,0,-76.5217187,37.0759784
"Norfolk, VA",VA,1800,6.926,-76.2446413,36.9230149
"Portsmouth, VA",VA,1800,0,-76.3562686,36.8594298
"Richmond, VA",VA,1800,5.737,-77.4760085,37.531399
"Roanoke, VA",VA,1800,0,-79.9584716,37.2778301
"Virginia Beach, VA",VA,1800,0,-76.0240202,36.7793219
"Bellevue, WA",WA,1800,0,-122.1564895,47.5978391
"Everett, WA",WA,1800,0,-122.1742234,48.0032673
"Seattle, WA",WA,1800,0,-122.3508761,47.6204993
"Spokane, WA",WA,1800,0,-117.4165955,47.6735545
"Tacoma, WA",WA,1800,0,-122.4598318,47.2521991
"Vancouver, WA",WA,1800,0,-122.5965165,45.6372364
"Green Bay, WI",WI,1800,0,-87.9841686,44.5206763
"Kenosha, WI",WI,1800,0,-87.8736961,42.5847398
"Madison, WI",WI,1800,0,-89.4301208,43.0878055
"Milwaukee, WI",WI,1800,0,-87.9666952,43.0633484
"Arden-Arcade, CA",CA,1800,NA,NA,NA
"East Los Angeles, CA",CA,1800,NA,NA,NA
"Metairie, LA",LA,1800,NA,NA,NA
"Columbia, MD",MD,1800,NA,NA,NA
"Clinton, MI",MI,1800,NA,NA,NA
"Edison, NJ",NJ,1800,NA,NA,NA
"Toms River, NJ",NJ,1800,NA,NA,NA
"Paradise, NV",NV,1800,NA,NA,NA
"Spring Valley, NV",NV,1800,NA,NA,NA
"Sunrise Manor, NV",NV,1800,NA,NA,NA
"Arlington, VA",VA,1800,NA,NA,NA
"Anchorage, AK",AK,1810,0,-149.2743541,61.177549
"Birmingham, AL",AL,1810,0,-86.799047,33.5274441
"Huntsville, AL",AL,1810,0,-86.5389964,34.7842707
"Mobile, AL",AL,1810,0,-88.1002261,30.668426
"Montgomery, AL",AL,1810,0,-86.2685927,32.3462512
"Little Rock, AR",AR,1810,0,-92.358556,34.7254318
"Chandler, AZ",AZ,1810,0,-111.8549429,33.2828736
"Gilbert, AZ",AZ,1810,0,-111.7421907,33.3102088
"Glendale, AZ",AZ,1810,0,-112.1899006,33.5331113
"Mesa, AZ",AZ,1810,0,-111.7173787,33.4019259
"Peoria, AZ",AZ,1810,0,-112.3110998,33.7877083
"Phoenix, AZ",AZ,1810,0,-112.0879662,33.5721625
"Scottsdale, AZ",AZ,1810,0,-111.8236822,33.6687267
"Tempe, AZ",AZ,1810,0,-111.9317823,33.3884143
"Tucson, AZ",AZ,1810,0,-110.8710622,32.1542888
"Anaheim, CA",CA,1810,0,-117.7600707,33.8554971
"Antioch, CA",CA,1810,0,-121.7976176,37.977541
"Bakersfield, CA",CA,1810,0,-119.0182915,35.3212129
"Berkeley, CA",CA,1810,0,-122.2990661,37.8667016
"Burbank, CA",CA,1810,0,-118.3248656,34.1889857
"Carson, CA",CA,1810,0,-118.2495736,33.840367
"Chula Vista, CA",CA,1810,0,-117.0151695,32.6276701
"Compton, CA",CA,1810,0,-118.2273742,33.892614
"Concord, CA",CA,1810,0,-122.0015843,37.9721785
"Corona, CA",CA,1810,0,-117.5638573,33.862352
"Costa Mesa, CA",CA,1810,0,-117.9123358,33.6659055
"Daly City, CA",CA,1810,0,-122.4649783,37.7009406
"Downey, CA",CA,1810,0,-118.1308561,33.9382375
"El Cajon, CA",CA,1810,0,-116.9604818,32.801659
"El Monte, CA",CA,1810,0,-118.0291358,34.0746329
"Escondido, CA",CA,1810,0,-117.073223,33.1336477
"Fairfield, CA",CA,1810,0,-122.039719,38.256757
"Fontana, CA",CA,1810,0,-117.4626845,34.108793
"Fremont, CA",CA,1810,0,-121.9411173,37.4943734
"Fresno, CA",CA,1810,0,-119.794492,36.7826736
"Fullerton, CA",CA,1810,0,-117.9280246,33.8857143
"Garden Grove, CA",CA,1810,0,-117.9604719,33.7787816
"Glendale, CA",CA,1810,0,-118.2458301,34.1813929
"Hayward, CA",CA,1810,0,-122.1063408,37.6281392
"Huntington Beach, CA",CA,1810,0,-118.00933,33.6905687
"Inglewood, CA",CA,1810,0,-118.3442743,33.9560678
"Irvine, CA",CA,1810,0,-117.7712541,33.6783986
"Lancaster, CA",CA,1810,0,-118.1753054,34.693558
"Long Beach, CA",CA,1810,0,-118.1553273,33.8091018
"Los Angeles, CA",CA,1810,0,-118.4108248,34.0193936
"Mission Viejo, CA",CA,1810,0,-117.656471,33.6093352
"Modesto, CA",CA,1810,0,-120.9890523,37.6609092
"Moreno Valley, CA",CA,1810,0,-117.2056845,33.9232527
"Norwalk, CA",CA,1810,0,-118.0834464,33.9069288
"Oakland, CA",CA,1810,0,-122.2256401,37.7698573
"Oceanside, CA",CA,1810,0,-117.3062269,33.2245718
"Ontario, CA",CA,1810,0,-117.6087689,34.0395244
"Orange, CA",CA,1810,0,-117.8248761,33.8048434
"Oxnard, CA",CA,1810,0,-119.2046028,34.2023461
"Palmdale, CA",CA,1810,0,-118.1090011,34.5913162
"Pasadena, CA",CA,1810,0,-118.139593,34.160592
"Pomona, CA",CA,1810,0,-117.7612655,34.0585947
"Rancho Cucamonga, CA",CA,1810,0,-117.564207,34.1233151
"Rialto, CA",CA,1810,0,-117.3882874,34.1117839
"Richmond, CA",CA,1810,0,-122.3593535,37.9529744
"Riverside, CA",CA,1810,0,-117.3931675,33.9381433
"Sacramento, CA",CA,1810,0,-121.4686318,38.5665924
"Salinas, CA",CA,1810,0,-121.6337145,36.6901821
"San Bernardino, CA",CA,1810,0,-117.2953165,34.1392611
"San Diego, CA",CA,1810,0,-117.134993,32.8152995
"San Francisco, CA",CA,1810,0,-122.419338,37.780023
"San Jose, CA",CA,1810,0,-121.8193058,37.2968672
"San Mateo, CA",CA,1810,0,-122.3106003,37.5603104
"Santa Ana, CA",CA,1810,0,-117.8825931,33.736478
"Santa Barbara, CA",CA,1810,0,-119.7133561,34.398899
"Santa Clara, CA",CA,1810,0,-121.9679336,37.364613
"Santa Clarita, CA",CA,1810,0,-118.5047007,34.4048756
"Santa Rosa, CA",CA,1810,0,-122.7061362,38.4468158
"Simi Valley, CA",CA,1810,0,-118.7484575,34.2668875
"South Gate, CA",CA,1810,0,-118.1927614,33.9441585
"Stockton, CA",CA,1810,0,-121.3133043,37.9763417
"Sunnyvale, CA",CA,1810,0,-122.026323,37.3857838
"Thousand Oaks, CA",CA,1810,0,-118.874235,34.1932896
"Torrance, CA",CA,1810,0,-118.3414307,33.8349663
"Vacaville, CA",CA,1810,0,-121.969452,38.3573722
"Vallejo, CA",CA,1810,0,-122.2638801,38.1079111
"Ventura, CA",CA,1810,0,-119.257336,34.272907
"Visalia, CA",CA,1810,0,-119.3234086,36.3271538
"Vista, CA",CA,1810,0,-117.2386067,33.1895416
"West Covina, CA",CA,1810,0,-117.9099372,34.0559412
"Westminster, CA",CA,1810,0,-117.9937553,33.7521532
"Arvada, CO",CO,1810,0,-105.1066199,39.8097397
"Aurora, CO",CO,1810,0,-104.68974,39.6880021
"Boulder, CO",CO,1810,0,-105.2517397,40.027443
"Colorado Springs, CO",CO,1810,0,-104.760749,38.8672553
"Denver, CO",CO,1810,0,-104.8806251,39.7618487
"Fort Collins, CO",CO,1810,0,-105.0648327,40.5482164
"Lakewood, CO",CO,1810,0,-105.1175507,39.6989417
"Pueblo, CO",CO,1810,0,-104.6123784,38.2731471
"Westminster, CO",CO,1810,0,-105.0644262,39.8821898
"Bridgeport, CT",CT,1810,0,-73.1957339,41.1873858
"Hartford, CT",CT,1810,3.955,-72.6833394,41.7660453
"New Haven, CT",CT,1810,5.772,-72.924953,41.3108088
"Stamford, CT",CT,1810,0,-73.5460279,41.0798566
"Waterbury, CT",CT,1810,0,-73.0366845,41.5585001
"Washington, DC",DC,1810,8.208,-77.0170942,38.9041485
"Cape Coral, FL",FL,1810,0,-81.9973306,26.6431192
"Clearwater, FL",FL,1810,0,-82.7662648,27.9794747
"Coral Springs, FL",FL,1810,0,-80.2592915,26.2707826
"Fort Lauderdale, FL",FL,1810,0,-80.143896,26.141305
"Gainesville, FL",FL,1810,0,-82.345878,29.6788314
"Hialeah, FL",FL,1810,0,-80.302865,25.8699408
"Hollywood, FL",FL,1810,0,-80.1645743,26.0311054
"Jacksonville, FL",FL,1810,0,-81.6613021,30.3370193
"Miami, FL",FL,1810,0,-80.2086152,25.775163
"Miami Beach, FL",FL,1810,0,-80.1397207,25.8152651
"Orlando, FL",FL,1810,0,-81.2987497,28.4158857
"Pembroke Pines, FL",FL,1810,0,-80.3403962,26.0212389
"Port St. Lucie, FL",FL,1810,0,-80.3837622,27.2809508
"St. Petersburg, FL",FL,1810,0,-82.644055,27.7619755
"Tallahassee, FL",FL,1810,0,-84.2534191,30.4551091
"Tampa, FL",FL,1810,0,-82.4796734,27.9700861
"Athens, GA",GA,1810,0,-83.3700882,33.9495967
"Atlanta, GA",GA,1810,0,-84.4226745,33.7629088
"Augusta, GA",GA,1810,0,-82.0734219,33.3655309
"Columbus, GA",GA,1810,0,-84.874946,32.510197
"Macon, GA",GA,1810,0,-83.6489181,32.8309533
"Savannah, GA",GA,1810,5.215,-81.1535567,32.0025121
"Honolulu, HI",HI,1810,0,-157.8453146,21.3258516
"Cedar Rapids, IA",IA,1810,0,-91.6777599,41.9670481
"Davenport, IA",IA,1810,0,-90.6039968,41.5541036
"Des Moines, IA",IA,1810,0,-93.616708,41.5739461
"Boise, ID",ID,1810,0,-116.2310843,43.5984881
"Aurora, IL",IL,1810,0,-88.290099,41.763455
"Chicago, IL",IL,1810,0,-87.6818441,41.8375511
"Elgin, IL",IL,1810,0,-88.3217094,42.0396386
"Joliet, IL",IL,1810,0,-88.1583542,41.5180664
"Naperville, IL",IL,1810,0,-88.162019,41.7491725
"Peoria, IL",IL,1810,0,-89.6170968,40.7523087
"Rockford, IL",IL,1810,0,-89.0628271,42.2633938
"Springfield, IL",IL,1810,0,-89.6708323,39.7639077
"Waukegan, IL",IL,1810,0,-87.8708984,42.3694469
"Evansville, IN",IN,1810,0,-87.534703,37.9877339
"Fort Wayne, IN",IN,1810,0,-85.14388,41.088172900000004
"Gary, IN",IN,1810,0,-87.3448535,41.5958827
"Indianapolis, IN",IN,1810,0,-86.1459355,39.7766644
"South Bend, IN",IN,1810,0,-86.269043,41.6768497
"Kansas City, KS",KS,1810,0,-94.7417813,39.1225389
"Olathe, KS",KS,1810,0,-94.8188482,38.8842791
"Overland Park, KS",KS,1810,0,-94.6905839,38.8890422
"Topeka, KS",KS,1810,0,-95.6948257,39.03617
"Wichita, KS",KS,1810,0,-97.3426776,37.6906938
"Lexington, KY",KY,1810,4.326,-84.4584429,38.0401572
"Louisville, KY",KY,1810,1.4,-85.6667077,38.1780769
"Baton Rouge, LA",LA,1810,0,-91.1258993,30.4484535
"Lafayette, LA",LA,1810,0,-92.0313943,30.2115733
"New Orleans, LA",LA,1810,17.242,-89.9390074,30.0686361
"Shreveport, LA",LA,1810,0,-93.7926845,32.4670204
"Boston, MA",MA,1810,33.787,-71.0201725,42.33196
"Brockton, MA",MA,1810,0,-71.0246378,42.082543
"Cambridge, MA",MA,1810,0,-71.1182745,42.3759674
"Fall River, MA",MA,1810,0,-71.0941619,41.7253505
"Lowell, MA",MA,1810,0,-71.3221073,42.638893
"Lynn, MA",MA,1810,4.087,-70.9621851,42.4748618
"New Bedford, MA",MA,1810,5.651,-70.9379126,41.6613028
"Quincy, MA",MA,1810,0,-71.0093968,42.2609151
"Springfield, MA",MA,1810,2.8,-72.5399783,42.115454
"Worcester, MA",MA,1810,2.6,-71.8077831,42.2694781
"Baltimore, MD",MD,1810,46.555,-76.6105159,39.3002135
"Ann Arbor, MI",MI,1810,0,-83.7313328,42.2756414
"Dearborn, MI",MI,1810,0,-83.2114879,42.3130574
"Detroit, MI",MI,1810,0,-83.1022365,42.3830375
"Flint, MI",MI,1810,0,-83.6919833,43.0244249
"Grand Rapids, MI",MI,1810,0,-85.6555701,42.961156
"Lansing, MI",MI,1810,0,-84.5562219,42.7097871
"Livonia, MI",MI,1810,0,-83.3723195,42.3971831
"Sterling Heights, MI",MI,1810,0,-83.0303162,42.5812062
"Warren, MI",MI,1810,0,-83.0250007,42.4929044
"Westland, MI",MI,1810,0,-83.3807781,42.3191725
"Duluth, MN",MN,1810,0,-92.1187097,46.783229
"Minneapolis, MN",MN,1810,0,-93.2682835,44.9633235
"St. Paul, MN",MN,1810,0,-93.1038552,44.9488695
"Independence, MO",MO,1810,0,-94.3512918,39.0852578
"Kansas City, MO",MO,1810,0,-94.5511362,39.125212
"Springfield, MO",MO,1810,0,-93.2913048,37.194152
"St. Louis, MO",MO,1810,0,-90.2445816,38.6356988
"Jackson, MS",MS,1810,0,-90.2128226,32.3158308
"Billings, MT",MT,1810,0,-108.5498909,45.7895184
"Cary, NC",NC,1810,0,-78.8140795,35.7821217
"Charlotte, NC",NC,1810,0,-80.8307389,35.2087069
"Durham, NC",NC,1810,0,-78.9056471,35.9809638
"Fayetteville, NC",NC,1810,0,-78.9802627,35.0851098
"Greensboro, NC",NC,1810,0,-79.8271079,36.0964835
"Raleigh, NC",NC,1810,0,-78.6414394,35.8302035
"Winston-Salem, NC",NC,1810,0,-80.2605782,36.1032616
"Fargo, ND",ND,1810,0,-96.8290052,46.8652063
"Lincoln, NE",NE,1810,0,-96.6803544,40.8089574
"Omaha, NE",NE,1810,0,-96.041926900000007,41.2646751
"Manchester, NH",NH,1810,0,-71.4438932,42.9846891
"Nashua, NH",NH,1810,0,-71.4905435,42.7490744
"Elizabeth, NJ",NJ,1810,2.977,-74.19353,40.6662613
"Jersey City, NJ",NJ,1810,0,-74.0647599,40.7114174
"Newark, NJ",NJ,1810,0,-74.1725735,40.7242204
"Paterson, NJ",NJ,1810,0,-74.1628255,40.9147462
"Albuquerque, NM",NM,1810,0,-106.6473884,35.1055517
"Henderson, NV",NV,1810,0,-115.0374619,36.0122334
"Las Vegas, NV",NV,1810,0,-115.2640448,36.2277116
"North Las Vegas, NV",NV,1810,0,-115.0892625,36.2829735
"Reno, NV",NV,1810,0,-119.7765384,39.4744867
"Albany, NY",NY,1810,10.762,-73.7983532,42.6657453
"Buffalo, NY",NY,1810,1.5,-78.8596862,42.8924919
"New York City, NY",NY,1810,96.373,-73.9385004,40.6642738
"Rochester, NY",NY,1810,0,-77.6168907,43.1699272
"Syracuse, NY",NY,1810,0,-76.1435544,43.0409981
"Yonkers, NY",NY,1810,0,-73.8674464,40.9458622
"Akron, OH",OH,1810,0,-81.5214295,41.0804559
"Cincinnati, OH",OH,1810,2.54,-84.5064465,39.1399019
"Cleveland, OH",OH,1810,0,-81.6794861,41.4781381
"Columbus, OH",OH,1810,0,-82.9850438,39.9847989
"Dayton, OH",OH,1810,0.4,-84.1996317,39.7773943
"Toledo, OH",OH,1810,0,-83.5818608,41.664071
"Lawton, OK",OK,1810,0,-98.4204004,34.6170477
"Norman, OK",OK,1810,0,-97.3453056,35.2405774
"Oklahoma City, OK",OK,1810,0,-97.5136565,35.4670795
"Tulsa, OK",OK,1810,0,-95.9023162,36.1279488
"Eugene, OR",OR,1810,0,-123.1162068,44.0567484
"Gresham, OR",OR,1810,0,-122.4416088,45.502319
"Portland, OR",OR,1810,0,-122.649971,45.5369506
"Salem, OR",OR,1810,0,-123.0231194,44.9236937
"Allentown, PA",PA,1810,0,-75.4781595,40.5939656
"Erie, PA",PA,1810,0.4,-80.0735032,42.1165941
"Philadelphia, PA",PA,1810,53.722,-75.1333459,40.0093755
"Pittsburgh, PA",PA,1810,4.768,-79.9765919,40.4397525
"Providence, RI",RI,1810,10.071,-71.4187795,41.823055600000004
"Charleston, SC",SC,1810,24.711,-79.9589267,32.8179219
"Columbia, SC",SC,1810,0,-80.8965664,34.0297833
"Sioux Falls, SD",SD,1810,0,-96.7319985,43.5383351
"Chattanooga, TN",TN,1810,0,-85.2470649,35.0664635
"Clarksville, TN",TN,1810,0,-87.3452162,36.5664303
"Knoxville, TN",TN,1810,0,-83.9464787,35.9708752
"Memphis, TN",TN,1810,0,-89.9784984,35.1035431
"Nashville, TN",TN,1810,0,-86.7850016,36.1718001
"Abilene, TX",TX,1810,0,-99.7381473,32.4545143
"Amarillo, TX",TX,1810,0,-101.8287459,35.1978395
"Arlington, TX",TX,1810,0,-97.1246912,32.7007082
"Austin, TX",TX,1810,0,-97.7559964,30.3071816
"Beaumont, TX",TX,1810,0,-94.1457737,30.0843427
"Brownsville, TX",TX,1810,0,-97.4538263,26.0183263
"Carrollton, TX",TX,1810,0,-96.8997702,32.9883599
"Corpus Christi, TX",TX,1810,0,-97.396259,27.804553
"Dallas, TX",TX,1810,0,-96.7655033,32.794176
"El Paso, TX",TX,1810,0,-106.426979,31.8483598
"Fort Worth, TX",TX,1810,0,-97.3463354,32.7795423
"Garland, TX",TX,1810,0,-96.6303571,32.9098261
"Grand Prairie, TX",TX,1810,0,-97.0209951,32.6841931
"Houston, TX",TX,1810,0,-95.3863425,29.7804724
"Irving, TX",TX,1810,0,-96.9700224,32.8577478
"Killeen, TX",TX,1810,0,-97.731952,31.0776691
"Laredo, TX",TX,1810,0,-99.4869309,27.5476811
"Lubbock, TX",TX,1810,0,-101.8866773,33.5664787
"Mcallen, TX",TX,1810,0,-98.2461453,26.2185125
"Mesquite, TX",TX,1810,0,-96.5924264,32.763903
"Midland, TX",TX,1810,0,-102.1096969,32.0299306
"Odessa, TX",TX,1810,0,-102.3434058,31.8803778
"Pasadena, TX",TX,1810,0,-95.1504783,29.6582634
"Plano, TX",TX,1810,0,-96.747944,33.0507687
"Richardson, TX",TX,1810,0,-96.7080688,32.9722914
"San Angelo, TX",TX,1810,0,-100.4518503,31.4389124
"San Antonio, TX",TX,1810,0,-98.5251419,29.4724026
"Waco, TX",TX,1810,0,-97.1860267,31.5601108
"Wichita Falls, TX",TX,1810,0,-98.525854,33.9066992
"Provo, UT",UT,1810,0,-111.6448069,40.2453301
"Salt Lake City, UT",UT,1810,0,-111.9314142,40.7785197
"Sandy, UT",UT,1810,0,-111.8522856,40.5715632
"West Valley City, UT",UT,1810,0,-112.0117586,40.6884927
"Alexandria, VA",VA,1810,7.2,-77.0820263,38.8183429
"Chesapeake, VA",VA,1810,0,-76.3017884,36.6793761
"Hampton, VA",VA,1810,0,-76.2971486,37.0480303
"Newport News, VA",VA,1810,0,-76.5217187,37.0759784
"Norfolk, VA",VA,1810,9.193,-76.2446413,36.9230149
"Portsmouth, VA",VA,1810,0,-76.3562686,36.8594298
"Richmond, VA",VA,1810,9.735,-77.4760085,37.531399
"Roanoke, VA",VA,1810,0,-79.9584716,37.2778301
"Virginia Beach, VA",VA,1810,0,-76.0240202,36.7793219
"Bellevue, WA",WA,1810,0,-122.1564895,47.5978391
"Everett, WA",WA,1810,0,-122.1742234,48.0032673
"Seattle, WA",WA,1810,0,-122.3508761,47.6204993
"Spokane, WA",WA,1810,0,-117.4165955,47.6735545
"Tacoma, WA",WA,1810,0,-122.4598318,47.2521991
"Vancouver, WA",WA,1810,0,-122.5965165,45.6372364
"Green Bay, WI",WI,1810,0,-87.9841686,44.5206763
"Kenosha, WI",WI,1810,0,-87.8736961,42.5847398
"Madison, WI",WI,1810,0,-89.4301208,43.0878055
"Milwaukee, WI",WI,1810,0,-87.9666952,43.0633484
"Arden-Arcade, CA",CA,1810,NA,NA,NA
"East Los Angeles, CA",CA,1810,NA,NA,NA
"Metairie, LA",LA,1810,NA,NA,NA
"Columbia, MD",MD,1810,NA,NA,NA
"Clinton, MI",MI,1810,NA,NA,NA
"Edison, NJ",NJ,1810,NA,NA,NA
"Toms River, NJ",NJ,1810,NA,NA,NA
"Paradise, NV",NV,1810,NA,NA,NA
"Spring Valley, NV",NV,1810,NA,NA,NA
"Sunrise Manor, NV",NV,1810,NA,NA,NA
"Arlington, VA",VA,1810,NA,NA,NA
"Anchorage, AK",AK,1820,0,-149.2743541,61.177549
"Birmingham, AL",AL,1820,0,-86.799047,33.5274441
"Huntsville, AL",AL,1820,0,-86.5389964,34.7842707
"Mobile, AL",AL,1820,0,-88.1002261,30.668426
"Montgomery, AL",AL,1820,0,-86.2685927,32.3462512
"Little Rock, AR",AR,1820,0,-92.358556,34.7254318
"Chandler, AZ",AZ,1820,0,-111.8549429,33.2828736
"Gilbert, AZ",AZ,1820,0,-111.7421907,33.3102088
"Glendale, AZ",AZ,1820,0,-112.1899006,33.5331113
"Mesa, AZ",AZ,1820,0,-111.7173787,33.4019259
"Peoria, AZ",AZ,1820,0,-112.3110998,33.7877083
"Phoenix, AZ",AZ,1820,0,-112.0879662,33.5721625
"Scottsdale, AZ",AZ,1820,0,-111.8236822,33.6687267
"Tempe, AZ",AZ,1820,0,-111.9317823,33.3884143
"Tucson, AZ",AZ,1820,0,-110.8710622,32.1542888
"Anaheim, CA",CA,1820,0,-117.7600707,33.8554971
"Antioch, CA",CA,1820,0,-121.7976176,37.977541
"Bakersfield, CA",CA,1820,0,-119.0182915,35.3212129
"Berkeley, CA",CA,1820,0,-122.2990661,37.8667016
"Burbank, CA",CA,1820,0,-118.3248656,34.1889857
"Carson, CA",CA,1820,0,-118.2495736,33.840367
"Chula Vista, CA",CA,1820,0,-117.0151695,32.6276701
"Compton, CA",CA,1820,0,-118.2273742,33.892614
"Concord, CA",CA,1820,0,-122.0015843,37.9721785
"Corona, CA",CA,1820,0,-117.5638573,33.862352
"Costa Mesa, CA",CA,1820,0,-117.9123358,33.6659055
"Daly City, CA",CA,1820,0,-122.4649783,37.7009406
"Downey, CA",CA,1820,0,-118.1308561,33.9382375
"El Cajon, CA",CA,1820,0,-116.9604818,32.801659
"El Monte, CA",CA,1820,0,-118.0291358,34.0746329
"Escondido, CA",CA,1820,0,-117.073223,33.1336477
"Fairfield, CA",CA,1820,0,-122.039719,38.256757
"Fontana, CA",CA,1820,0,-117.4626845,34.108793
"Fremont, CA",CA,1820,0,-121.9411173,37.4943734
"Fresno, CA",CA,1820,0,-119.794492,36.7826736
"Fullerton, CA",CA,1820,0,-117.9280246,33.8857143
"Garden Grove, CA",CA,1820,0,-117.9604719,33.7787816
"Glendale, CA",CA,1820,0,-118.2458301,34.1813929
"Hayward, CA",CA,1820,0,-122.1063408,37.6281392
"Huntington Beach, CA",CA,1820,0,-118.00933,33.6905687
"Inglewood, CA",CA,1820,0,-118.3442743,33.9560678
"Irvine, CA",CA,1820,0,-117.7712541,33.6783986
"Lancaster, CA",CA,1820,0,-118.1753054,34.693558
"Long Beach, CA",CA,1820,0,-118.1553273,33.8091018
"Los Angeles, CA",CA,1820,0,-118.4108248,34.0193936
"Mission Viejo, CA",CA,1820,0,-117.656471,33.6093352
"Modesto, CA",CA,1820,0,-120.9890523,37.6609092
"Moreno Valley, CA",CA,1820,0,-117.2056845,33.9232527
"Norwalk, CA",CA,1820,0,-118.0834464,33.9069288
"Oakland, CA",CA,1820,0,-122.2256401,37.7698573
"Oceanside, CA",CA,1820,0,-117.3062269,33.2245718
"Ontario, CA",CA,1820,0,-117.6087689,34.0395244
"Orange, CA",CA,1820,0,-117.8248761,33.8048434
"Oxnard, CA",CA,1820,0,-119.2046028,34.2023461
"Palmdale, CA",CA,1820,0,-118.1090011,34.5913162
"Pasadena, CA",CA,1820,0,-118.139593,34.160592
"Pomona, CA",CA,1820,0,-117.7612655,34.0585947
"Rancho Cucamonga, CA",CA,1820,0,-117.564207,34.1233151
"Rialto, CA",CA,1820,0,-117.3882874,34.1117839
"Richmond, CA",CA,1820,0,-122.3593535,37.9529744
"Riverside, CA",CA,1820,0,-117.3931675,33.9381433
"Sacramento, CA",CA,1820,0,-121.4686318,38.5665924
"Salinas, CA",CA,1820,0,-121.6337145,36.6901821
"San Bernardino, CA",CA,1820,0,-117.2953165,34.1392611
"San Diego, CA",CA,1820,0,-117.134993,32.8152995
"San Francisco, CA",CA,1820,0,-122.419338,37.780023
"San Jose, CA",CA,1820,0,-121.8193058,37.2968672
"San Mateo, CA",CA,1820,0,-122.3106003,37.5603104
"Santa Ana, CA",CA,1820,0,-117.8825931,33.736478
"Santa Barbara, CA",CA,1820,0,-119.7133561,34.398899
"Santa Clara, CA",CA,1820,0,-121.9679336,37.364613
"Santa Clarita, CA",CA,1820,0,-118.5047007,34.4048756
"Santa Rosa, CA",CA,1820,0,-122.7061362,38.4468158
"Simi Valley, CA",CA,1820,0,-118.7484575,34.2668875
"South Gate, CA",CA,1820,0,-118.1927614,33.9441585
"Stockton, CA",CA,1820,0,-121.3133043,37.9763417
"Sunnyvale, CA",CA,1820,0,-122.026323,37.3857838
"Thousand Oaks, CA",CA,1820,0,-118.874235,34.1932896
"Torrance, CA",CA,1820,0,-118.3414307,33.8349663
"Vacaville, CA",CA,1820,0,-121.969452,38.3573722
"Vallejo, CA",CA,1820,0,-122.2638801,38.1079111
"Ventura, CA",CA,1820,0,-119.257336,34.272907
"Visalia, CA",CA,1820,0,-119.3234086,36.3271538
"Vista, CA",CA,1820,0,-117.2386067,33.1895416
"West Covina, CA",CA,1820,0,-117.9099372,34.0559412
"Westminster, CA",CA,1820,0,-117.9937553,33.7521532
"Arvada, CO",CO,1820,0,-105.1066199,39.8097397
"Aurora, CO",CO,1820,0,-104.68974,39.6880021
"Boulder, CO",CO,1820,0,-105.2517397,40.027443
"Colorado Springs, CO",CO,1820,0,-104.760749,38.8672553
"Denver, CO",CO,1820,0,-104.8806251,39.7618487
"Fort Collins, CO",CO,1820,0,-105.0648327,40.5482164
"Lakewood, CO",CO,1820,0,-105.1175507,39.6989417
"Pueblo, CO",CO,1820,0,-104.6123784,38.2731471
"Westminster, CO",CO,1820,0,-105.0644262,39.8821898
"Bridgeport, CT",CT,1820,0,-73.1957339,41.1873858
"Hartford, CT",CT,1820,4.726,-72.6833394,41.7660453
"New Haven, CT",CT,1820,7.147,-72.924953,41.3108088
"Stamford, CT",CT,1820,0,-73.5460279,41.0798566
"Waterbury, CT",CT,1820,0,-73.0366845,41.5585001
"Washington, DC",DC,1820,13.247,-77.0170942,38.9041485
"Cape Coral, FL",FL,1820,0,-81.9973306,26.6431192
"Clearwater, FL",FL,1820,0,-82.7662648,27.9794747
"Coral Springs, FL",FL,1820,0,-80.2592915,26.2707826
"Fort Lauderdale, FL",FL,1820,0,-80.143896,26.141305
"Gainesville, FL",FL,1820,0,-82.345878,29.6788314
"Hialeah, FL",FL,1820,0,-80.302865,25.8699408
"Hollywood, FL",FL,1820,0,-80.1645743,26.0311054
"Jacksonville, FL",FL,1820,0,-81.6613021,30.3370193
"Miami, FL",FL,1820,0,-80.2086152,25.775163
"Miami Beach, FL",FL,1820,0,-80.1397207,25.8152651
"Orlando, FL",FL,1820,0,-81.2987497,28.4158857
"Pembroke Pines, FL",FL,1820,0,-80.3403962,26.0212389
"Port St. Lucie, FL",FL,1820,0,-80.3837622,27.2809508
"St. Petersburg, FL",FL,1820,0,-82.644055,27.7619755
"Tallahassee, FL",FL,1820,0,-84.2534191,30.4551091
"Tampa, FL",FL,1820,0,-82.4796734,27.9700861
"Athens, GA",GA,1820,0,-83.3700882,33.9495967
"Atlanta, GA",GA,1820,0,-84.4226745,33.7629088
"Augusta, GA",GA,1820,0,-82.0734219,33.3655309
"Columbus, GA",GA,1820,0,-84.874946,32.510197
"Macon, GA",GA,1820,0,-83.6489181,32.8309533
"Savannah, GA",GA,1820,7.523,-81.1535567,32.0025121
"Honolulu, HI",HI,1820,0,-157.8453146,21.3258516
"Cedar Rapids, IA",IA,1820,0,-91.6777599,41.9670481
"Davenport, IA",IA,1820,0,-90.6039968,41.5541036
"Des Moines, IA",IA,1820,0,-93.616708,41.5739461
"Boise, ID",ID,1820,0,-116.2310843,43.5984881
"Aurora, IL",IL,1820,0,-88.290099,41.763455
"Chicago, IL",IL,1820,0,-87.6818441,41.8375511
"Elgin, IL",IL,1820,0,-88.3217094,42.0396386
"Joliet, IL",IL,1820,0,-88.1583542,41.5180664
"Naperville, IL",IL,1820,0,-88.162019,41.7491725
"Peoria, IL",IL,1820,0,-89.6170968,40.7523087
"Rockford, IL",IL,1820,0,-89.0628271,42.2633938
"Springfield, IL",IL,1820,0,-89.6708323,39.7639077
"Waukegan, IL",IL,1820,0,-87.8708984,42.3694469
"Evansville, IN",IN,1820,0,-87.534703,37.9877339
"Fort Wayne, IN",IN,1820,0,-85.14388,41.088172900000004
"Gary, IN",IN,1820,0,-87.3448535,41.5958827
"Indianapolis, IN",IN,1820,0,-86.1459355,39.7766644
"South Bend, IN",IN,1820,0,-86.269043,41.6768497
"Kansas City, KS",KS,1820,0,-94.7417813,39.1225389
"Olathe, KS",KS,1820,0,-94.8188482,38.8842791
"Overland Park, KS",KS,1820,0,-94.6905839,38.8890422
"Topeka, KS",KS,1820,0,-95.6948257,39.03617
"Wichita, KS",KS,1820,0,-97.3426776,37.6906938
"Lexington, KY",KY,1820,5.279,-84.4584429,38.0401572
"Louisville, KY",KY,1820,4.012,-85.6667077,38.1780769
"Baton Rouge, LA",LA,1820,0,-91.1258993,30.4484535
"Lafayette, LA",LA,1820,0,-92.0313943,30.2115733
"New Orleans, LA",LA,1820,27.176,-89.9390074,30.0686361
"Shreveport, LA",LA,1820,0,-93.7926845,32.4670204
"Boston, MA",MA,1820,43.298,-71.0201725,42.33196
"Brockton, MA",MA,1820,0,-71.0246378,42.082543
"Cambridge, MA",MA,1820,0,-71.1182745,42.3759674
"Fall River, MA",MA,1820,0,-71.0941619,41.7253505
"Lowell, MA",MA,1820,0,-71.3221073,42.638893
"Lynn, MA",MA,1820,4.515,-70.9621851,42.4748618
"New Bedford, MA",MA,1820,3.947,-70.9379126,41.6613028
"Quincy, MA",MA,1820,0,-71.0093968,42.2609151
"Springfield, MA",MA,1820,3.9,-72.5399783,42.115454
"Worcester, MA",MA,1820,3,-71.8077831,42.2694781
"Baltimore, MD",MD,1820,62.738,-76.6105159,39.3002135
"Ann Arbor, MI",MI,1820,0,-83.7313328,42.2756414
"Dearborn, MI",MI,1820,0,-83.2114879,42.3130574
"Detroit, MI",MI,1820,1.4,-83.1022365,42.3830375
"Flint, MI",MI,1820,0,-83.6919833,43.0244249
"Grand Rapids, MI",MI,1820,0,-85.6555701,42.961156
"Lansing, MI",MI,1820,0,-84.5562219,42.7097871
"Livonia, MI",MI,1820,0,-83.3723195,42.3971831
"Sterling Heights, MI",MI,1820,0,-83.0303162,42.5812062
"Warren, MI",MI,1820,0,-83.0250007,42.4929044
"Westland, MI",MI,1820,0,-83.3807781,42.3191725
"Duluth, MN",MN,1820,0,-92.1187097,46.783229
"Minneapolis, MN",MN,1820,0,-93.2682835,44.9633235
"St. Paul, MN",MN,1820,0,-93.1038552,44.9488695
"Independence, MO",MO,1820,0,-94.3512918,39.0852578
"Kansas City, MO",MO,1820,0,-94.5511362,39.125212
"Springfield, MO",MO,1820,0,-93.2913048,37.194152
"St. Louis, MO",MO,1820,0,-90.2445816,38.6356988
"Jackson, MS",MS,1820,0,-90.2128226,32.3158308
"Billings, MT",MT,1820,0,-108.5498909,45.7895184
"Cary, NC",NC,1820,0,-78.8140795,35.7821217
"Charlotte, NC",NC,1820,0,-80.8307389,35.2087069
"Durham, NC",NC,1820,0,-78.9056471,35.9809638
"Fayetteville, NC",NC,1820,3.532,-78.9802627,35.0851098
"Greensboro, NC",NC,1820,0,-79.8271079,36.0964835
"Raleigh, NC",NC,1820,2.674,-78.6414394,35.8302035
"Winston-Salem, NC",NC,1820,0,-80.2605782,36.1032616
"Fargo, ND",ND,1820,0,-96.8290052,46.8652063
"Lincoln, NE",NE,1820,0,-96.6803544,40.8089574
"Omaha, NE",NE,1820,0,-96.041926900000007,41.2646751
"Manchester, NH",NH,1820,0,-71.4438932,42.9846891
"Nashua, NH",NH,1820,0,-71.4905435,42.7490744
"Elizabeth, NJ",NJ,1820,3.515,-74.19353,40.6662613
"Jersey City, NJ",NJ,1820,0,-74.0647599,40.7114174
"Newark, NJ",NJ,1820,0,-74.1725735,40.7242204
"Paterson, NJ",NJ,1820,0,-74.1628255,40.9147462
"Albuquerque, NM",NM,1820,0,-106.6473884,35.1055517
"Henderson, NV",NV,1820,0,-115.0374619,36.0122334
"Las Vegas, NV",NV,1820,0,-115.2640448,36.2277116
"North Las Vegas, NV",NV,1820,0,-115.0892625,36.2829735
"Reno, NV",NV,1820,0,-119.7765384,39.4744867
"Albany, NY",NY,1820,12.63,-73.7983532,42.6657453
"Buffalo, NY",NY,1820,2.1,-78.8596862,42.8924919
"New York City, NY",NY,1820,123.706,-73.9385004,40.6642738
"Rochester, NY",NY,1820,0,-77.6168907,43.1699272
"Syracuse, NY",NY,1820,0,-76.1435544,43.0409981
"Yonkers, NY",NY,1820,0,-73.8674464,40.9458622
"Akron, OH",OH,1820,0,-81.5214295,41.0804559
"Cincinnati, OH",OH,1820,9.642,-84.5064465,39.1399019
"Cleveland, OH",OH,1820,0.6,-81.6794861,41.4781381
"Columbus, OH",OH,1820,0,-82.9850438,39.9847989
"Dayton, OH",OH,1820,1,-84.1996317,39.7773943
"Toledo, OH",OH,1820,0,-83.5818608,41.664071
"Lawton, OK",OK,1820,0,-98.4204004,34.6170477
"Norman, OK",OK,1820,0,-97.3453056,35.2405774
"Oklahoma City, OK",OK,1820,0,-97.5136565,35.4670795
"Tulsa, OK",OK,1820,0,-95.9023162,36.1279488
"Eugene, OR",OR,1820,0,-123.1162068,44.0567484
"Gresham, OR",OR,1820,0,-122.4416088,45.502319
"Portland, OR",OR,1820,0,-122.649971,45.5369506
"Salem, OR",OR,1820,0,-123.0231194,44.9236937
"Allentown, PA",PA,1820,0,-75.4781595,40.5939656
"Erie, PA",PA,1820,0.6,-80.0735032,42.1165941
"Philadelphia, PA",PA,1820,63.802,-75.1333459,40.0093755
"Pittsburgh, PA",PA,1820,7.248,-79.9765919,40.4397525
"Providence, RI",RI,1820,11.767,-71.4187795,41.823055600000004
"Charleston, SC",SC,1820,24.78,-79.9589267,32.8179219
"Columbia, SC",SC,1820,0,-80.8965664,34.0297833
"Sioux Falls, SD",SD,1820,0,-96.7319985,43.5383351
"Chattanooga, TN",TN,1820,0,-85.2470649,35.0664635
"Clarksville, TN",TN,1820,0,-87.3452162,36.5664303
"Knoxville, TN",TN,1820,0,-83.9464787,35.9708752
"Memphis, TN",TN,1820,0,-89.9784984,35.1035431
"Nashville, TN",TN,1820,0,-86.7850016,36.1718001
"Abilene, TX",TX,1820,0,-99.7381473,32.4545143
"Amarillo, TX",TX,1820,0,-101.8287459,35.1978395
"Arlington, TX",TX,1820,0,-97.1246912,32.7007082
"Austin, TX",TX,1820,0,-97.7559964,30.3071816
"Beaumont, TX",TX,1820,0,-94.1457737,30.0843427
"Brownsville, TX",TX,1820,0,-97.4538263,26.0183263
"Carrollton, TX",TX,1820,0,-96.8997702,32.9883599
"Corpus Christi, TX",TX,1820,0,-97.396259,27.804553
"Dallas, TX",TX,1820,0,-96.7655033,32.794176
"El Paso, TX",TX,1820,0,-106.426979,31.8483598
"Fort Worth, TX",TX,1820,0,-97.3463354,32.7795423
"Garland, TX",TX,1820,0,-96.6303571,32.9098261
"Grand Prairie, TX",TX,1820,0,-97.0209951,32.6841931
"Houston, TX",TX,1820,0,-95.3863425,29.7804724
"Irving, TX",TX,1820,0,-96.9700224,32.8577478
"Killeen, TX",TX,1820,0,-97.731952,31.0776691
"Laredo, TX",TX,1820,0,-99.4869309,27.5476811
"Lubbock, TX",TX,1820,0,-101.8866773,33.5664787
"Mcallen, TX",TX,1820,0,-98.2461453,26.2185125
"Mesquite, TX",TX,1820,0,-96.5924264,32.763903
"Midland, TX",TX,1820,0,-102.1096969,32.0299306
"Odessa, TX",TX,1820,0,-102.3434058,31.8803778
"Pasadena, TX",TX,1820,0,-95.1504783,29.6582634
"Plano, TX",TX,1820,0,-96.747944,33.0507687
"Richardson, TX",TX,1820,0,-96.7080688,32.9722914
"San Angelo, TX",TX,1820,0,-100.4518503,31.4389124
"San Antonio, TX",TX,1820,0,-98.5251419,29.4724026
"Waco, TX",TX,1820,0,-97.1860267,31.5601108
"Wichita Falls, TX",TX,1820,0,-98.525854,33.9066992
"Provo, UT",UT,1820,0,-111.6448069,40.2453301
"Salt Lake City, UT",UT,1820,0,-111.9314142,40.7785197
"Sandy, UT",UT,1820,0,-111.8522856,40.5715632
"West Valley City, UT",UT,1820,0,-112.0117586,40.6884927
"Alexandria, VA",VA,1820,8.2,-77.0820263,38.8183429
"Chesapeake, VA",VA,1820,0,-76.3017884,36.6793761
"Hampton, VA",VA,1820,0,-76.2971486,37.0480303
"Newport News, VA",VA,1820,0,-76.5217187,37.0759784
"Norfolk, VA",VA,1820,8.478,-76.2446413,36.9230149
"Portsmouth, VA",VA,1820,0,-76.3562686,36.8594298
"Richmond, VA",VA,1820,12.067,-77.4760085,37.531399
"Roanoke, VA",VA,1820,0,-79.9584716,37.2778301
"Virginia Beach, VA",VA,1820,0,-76.0240202,36.7793219
"Bellevue, WA",WA,1820,0,-122.1564895,47.5978391
"Everett, WA",WA,1820,0,-122.1742234,48.0032673
"Seattle, WA",WA,1820,0,-122.3508761,47.6204993
"Spokane, WA",WA,1820,0,-117.4165955,47.6735545
"Tacoma, WA",WA,1820,0,-122.4598318,47.2521991
"Vancouver, WA",WA,1820,0,-122.5965165,45.6372364
"Green Bay, WI",WI,1820,0,-87.9841686,44.5206763
"Kenosha, WI",WI,1820,0,-87.8736961,42.5847398
"Madison, WI",WI,1820,0,-89.4301208,43.0878055
"Milwaukee, WI",WI,1820,0,-87.9666952,43.0633484
"Arden-Arcade, CA",CA,1820,NA,NA,NA
"East Los Angeles, CA",CA,1820,NA,NA,NA
"Metairie, LA",LA,1820,NA,NA,NA
"Columbia, MD",MD,1820,NA,NA,NA
"Clinton, MI",MI,1820,NA,NA,NA
"Edison, NJ",NJ,1820,NA,NA,NA
"Toms River, NJ",NJ,1820,NA,NA,NA
"Paradise, NV",NV,1820,NA,NA,NA
"Spring Valley, NV",NV,1820,NA,NA,NA
"Sunrise Manor, NV",NV,1820,NA,NA,NA
"Arlington, VA",VA,1820,NA,NA,NA
"Anchorage, AK",AK,1830,0,-149.2743541,61.177549
"Birmingham, AL",AL,1830,0,-86.799047,33.5274441
"Huntsville, AL",AL,1830,0,-86.5389964,34.7842707
"Mobile, AL",AL,1830,3.194,-88.1002261,30.668426
"Montgomery, AL",AL,1830,0,-86.2685927,32.3462512
"Little Rock, AR",AR,1830,0,-92.358556,34.7254318
"Chandler, AZ",AZ,1830,0,-111.8549429,33.2828736
"Gilbert, AZ",AZ,1830,0,-111.7421907,33.3102088
"Glendale, AZ",AZ,1830,0,-112.1899006,33.5331113
"Mesa, AZ",AZ,1830,0,-111.7173787,33.4019259
"Peoria, AZ",AZ,1830,0,-112.3110998,33.7877083
"Phoenix, AZ",AZ,1830,0,-112.0879662,33.5721625
"Scottsdale, AZ",AZ,1830,0,-111.8236822,33.6687267
"Tempe, AZ",AZ,1830,0,-111.9317823,33.3884143
"Tucson, AZ",AZ,1830,0,-110.8710622,32.1542888
"Anaheim, CA",CA,1830,0,-117.7600707,33.8554971
"Antioch, CA",CA,1830,0,-121.7976176,37.977541
"Bakersfield, CA",CA,1830,0,-119.0182915,35.3212129
"Berkeley, CA",CA,1830,0,-122.2990661,37.8667016
"Burbank, CA",CA,1830,0,-118.3248656,34.1889857
"Carson, CA",CA,1830,0,-118.2495736,33.840367
"Chula Vista, CA",CA,1830,0,-117.0151695,32.6276701
"Compton, CA",CA,1830,0,-118.2273742,33.892614
"Concord, CA",CA,1830,0,-122.0015843,37.9721785
"Corona, CA",CA,1830,0,-117.5638573,33.862352
"Costa Mesa, CA",CA,1830,0,-117.9123358,33.6659055
"Daly City, CA",CA,1830,0,-122.4649783,37.7009406
"Downey, CA",CA,1830,0,-118.1308561,33.9382375
"El Cajon, CA",CA,1830,0,-116.9604818,32.801659
"El Monte, CA",CA,1830,0,-118.0291358,34.0746329
"Escondido, CA",CA,1830,0,-117.073223,33.1336477
"Fairfield, CA",CA,1830,0,-122.039719,38.256757
"Fontana, CA",CA,1830,0,-117.4626845,34.108793
"Fremont, CA",CA,1830,0,-121.9411173,37.4943734
"Fresno, CA",CA,1830,0,-119.794492,36.7826736
"Fullerton, CA",CA,1830,0,-117.9280246,33.8857143
"Garden Grove, CA",CA,1830,0,-117.9604719,33.7787816
"Glendale, CA",CA,1830,0,-118.2458301,34.1813929
"Hayward, CA",CA,1830,0,-122.1063408,37.6281392
"Huntington Beach, CA",CA,1830,0,-118.00933,33.6905687
"Inglewood, CA",CA,1830,0,-118.3442743,33.9560678
"Irvine, CA",CA,1830,0,-117.7712541,33.6783986
"Lancaster, CA",CA,1830,0,-118.1753054,34.693558
"Long Beach, CA",CA,1830,0,-118.1553273,33.8091018
"Los Angeles, CA",CA,1830,0,-118.4108248,34.0193936
"Mission Viejo, CA",CA,1830,0,-117.656471,33.6093352
"Modesto, CA",CA,1830,0,-120.9890523,37.6609092
"Moreno Valley, CA",CA,1830,0,-117.2056845,33.9232527
"Norwalk, CA",CA,1830,0,-118.0834464,33.9069288
"Oakland, CA",CA,1830,0,-122.2256401,37.7698573
"Oceanside, CA",CA,1830,0,-117.3062269,33.2245718
"Ontario, CA",CA,1830,0,-117.6087689,34.0395244
"Orange, CA",CA,1830,0,-117.8248761,33.8048434
"Oxnard, CA",CA,1830,0,-119.2046028,34.2023461
"Palmdale, CA",CA,1830,0,-118.1090011,34.5913162
"Pasadena, CA",CA,1830,0,-118.139593,34.160592
"Pomona, CA",CA,1830,0,-117.7612655,34.0585947
"Rancho Cucamonga, CA",CA,1830,0,-117.564207,34.1233151
"Rialto, CA",CA,1830,0,-117.3882874,34.1117839
"Richmond, CA",CA,1830,0,-122.3593535,37.9529744
"Riverside, CA",CA,1830,0,-117.3931675,33.9381433
"Sacramento, CA",CA,1830,0,-121.4686318,38.5665924
"Salinas, CA",CA,1830,0,-121.6337145,36.6901821
"San Bernardino, CA",CA,1830,0,-117.2953165,34.1392611
"San Diego, CA",CA,1830,0,-117.134993,32.8152995
"San Francisco, CA",CA,1830,0,-122.419338,37.780023
"San Jose, CA",CA,1830,0,-121.8193058,37.2968672
"San Mateo, CA",CA,1830,0,-122.3106003,37.5603104
"Santa Ana, CA",CA,1830,0,-117.8825931,33.736478
"Santa Barbara, CA",CA,1830,0,-119.7133561,34.398899
"Santa Clara, CA",CA,1830,0,-121.9679336,37.364613
"Santa Clarita, CA",CA,1830,0,-118.5047007,34.4048756
"Santa Rosa, CA",CA,1830,0,-122.7061362,38.4468158
"Simi Valley, CA",CA,1830,0,-118.7484575,34.2668875
"South Gate, CA",CA,1830,0,-118.1927614,33.9441585
"Stockton, CA",CA,1830,0,-121.3133043,37.9763417
"Sunnyvale, CA",CA,1830,0,-122.026323,37.3857838
"Thousand Oaks, CA",CA,1830,0,-118.874235,34.1932896
"Torrance, CA",CA,1830,0,-118.3414307,33.8349663
"Vacaville, CA",CA,1830,0,-121.969452,38.3573722
"Vallejo, CA",CA,1830,0,-122.2638801,38.1079111
"Ventura, CA",CA,1830,0,-119.257336,34.272907
"Visalia, CA",CA,1830,0,-119.3234086,36.3271538
"Vista, CA",CA,1830,0,-117.2386067,33.1895416
"West Covina, CA",CA,1830,0,-117.9099372,34.0559412
"Westminster, CA",CA,1830,0,-117.9937553,33.7521532
"Arvada, CO",CO,1830,0,-105.1066199,39.8097397
"Aurora, CO",CO,1830,0,-104.68974,39.6880021
"Boulder, CO",CO,1830,0,-105.2517397,40.027443
"Colorado Springs, CO",CO,1830,0,-104.760749,38.8672553
"Denver, CO",CO,1830,0,-104.8806251,39.7618487
"Fort Collins, CO",CO,1830,0,-105.0648327,40.5482164
"Lakewood, CO",CO,1830,0,-105.1175507,39.6989417
"Pueblo, CO",CO,1830,0,-104.6123784,38.2731471
"Westminster, CO",CO,1830,0,-105.0644262,39.8821898
"Bridgeport, CT",CT,1830,0,-73.1957339,41.1873858
"Hartford, CT",CT,1830,7.074,-72.6833394,41.7660453
"New Haven, CT",CT,1830,10.18,-72.924953,41.3108088
"Stamford, CT",CT,1830,0,-73.5460279,41.0798566
"Waterbury, CT",CT,1830,0,-73.0366845,41.5585001
"Washington, DC",DC,1830,18.826,-77.0170942,38.9041485
"Cape Coral, FL",FL,1830,0,-81.9973306,26.6431192
"Clearwater, FL",FL,1830,0,-82.7662648,27.9794747
"Coral Springs, FL",FL,1830,0,-80.2592915,26.2707826
"Fort Lauderdale, FL",FL,1830,0,-80.143896,26.141305
"Gainesville, FL",FL,1830,0,-82.345878,29.6788314
"Hialeah, FL",FL,1830,0,-80.302865,25.8699408
"Hollywood, FL",FL,1830,0,-80.1645743,26.0311054
"Jacksonville, FL",FL,1830,0,-81.6613021,30.3370193
"Miami, FL",FL,1830,0,-80.2086152,25.775163
"Miami Beach, FL",FL,1830,0,-80.1397207,25.8152651
"Orlando, FL",FL,1830,0,-81.2987497,28.4158857
"Pembroke Pines, FL",FL,1830,0,-80.3403962,26.0212389
"Port St. Lucie, FL",FL,1830,0,-80.3837622,27.2809508
"St. Petersburg, FL",FL,1830,0,-82.644055,27.7619755
"Tallahassee, FL",FL,1830,0,-84.2534191,30.4551091
"Tampa, FL",FL,1830,0,-82.4796734,27.9700861
"Athens, GA",GA,1830,0,-83.3700882,33.9495967
"Atlanta, GA",GA,1830,0,-84.4226745,33.7629088
"Augusta, GA",GA,1830,6.71,-82.0734219,33.3655309
"Columbus, GA",GA,1830,0,-84.874946,32.510197
"Macon, GA",GA,1830,0,-83.6489181,32.8309533
"Savannah, GA",GA,1830,7.303,-81.1535567,32.0025121
"Honolulu, HI",HI,1830,0,-157.8453146,21.3258516
"Cedar Rapids, IA",IA,1830,0,-91.6777599,41.9670481
"Davenport, IA",IA,1830,0,-90.6039968,41.5541036
"Des Moines, IA",IA,1830,0,-93.616708,41.5739461
"Boise, ID",ID,1830,0,-116.2310843,43.5984881
"Aurora, IL",IL,1830,0,-88.290099,41.763455
"Chicago, IL",IL,1830,0,-87.6818441,41.8375511
"Elgin, IL",IL,1830,0,-88.3217094,42.0396386
"Joliet, IL",IL,1830,0,-88.1583542,41.5180664
"Naperville, IL",IL,1830,0,-88.162019,41.7491725
"Peoria, IL",IL,1830,0,-89.6170968,40.7523087
"Rockford, IL",IL,1830,0,-89.0628271,42.2633938
"Springfield, IL",IL,1830,0,-89.6708323,39.7639077
"Waukegan, IL",IL,1830,0,-87.8708984,42.3694469
"Evansville, IN",IN,1830,0,-87.534703,37.9877339
"Fort Wayne, IN",IN,1830,0,-85.14388,41.088172900000004
"Gary, IN",IN,1830,0,-87.3448535,41.5958827
"Indianapolis, IN",IN,1830,0,-86.1459355,39.7766644
"South Bend, IN",IN,1830,0,-86.269043,41.6768497
"Kansas City, KS",KS,1830,0,-94.7417813,39.1225389
"Olathe, KS",KS,1830,0,-94.8188482,38.8842791
"Overland Park, KS",KS,1830,0,-94.6905839,38.8890422
"Topeka, KS",KS,1830,0,-95.6948257,39.03617
"Wichita, KS",KS,1830,0,-97.3426776,37.6906938
"Lexington, KY",KY,1830,6.026,-84.4584429,38.0401572
"Louisville, KY",KY,1830,10.341,-85.6667077,38.1780769
"Baton Rouge, LA",LA,1830,0,-91.1258993,30.4484535
"Lafayette, LA",LA,1830,0,-92.0313943,30.2115733
"New Orleans, LA",LA,1830,46.082,-89.9390074,30.0686361
"Shreveport, LA",LA,1830,0,-93.7926845,32.4670204
"Boston, MA",MA,1830,61.392,-71.0201725,42.33196
"Brockton, MA",MA,1830,0,-71.0246378,42.082543
"Cambridge, MA",MA,1830,6.072,-71.1182745,42.3759674
"Fall River, MA",MA,1830,4.158,-71.0941619,41.7253505
"Lowell, MA",MA,1830,6.474,-71.3221073,42.638893
"Lynn, MA",MA,1830,6.138,-70.9621851,42.4748618
"New Bedford, MA",MA,1830,7.592,-70.9379126,41.6613028
"Quincy, MA",MA,1830,0,-71.0093968,42.2609151
"Springfield, MA",MA,1830,6.784,-72.5399783,42.115454
"Worcester, MA",MA,1830,4.173,-71.8077831,42.2694781
"Baltimore, MD",MD,1830,80.62,-76.6105159,39.3002135
"Ann Arbor, MI",MI,1830,0,-83.7313328,42.2756414
"Dearborn, MI",MI,1830,0,-83.2114879,42.3130574
"Detroit, MI",MI,1830,2.2,-83.1022365,42.3830375
"Flint, MI",MI,1830,0,-83.6919833,43.0244249
"Grand Rapids, MI",MI,1830,0,-85.6555701,42.961156
"Lansing, MI",MI,1830,0,-84.5562219,42.7097871
"Livonia, MI",MI,1830,0,-83.3723195,42.3971831
"Sterling Heights, MI",MI,1830,0,-83.0303162,42.5812062
"Warren, MI",MI,1830,0,-83.0250007,42.4929044
"Westland, MI",MI,1830,0,-83.3807781,42.3191725
"Duluth, MN",MN,1830,0,-92.1187097,46.783229
"Minneapolis, MN",MN,1830,0,-93.2682835,44.9633235
"St. Paul, MN",MN,1830,0,-93.1038552,44.9488695
"Independence, MO",MO,1830,0,-94.3512918,39.0852578
"Kansas City, MO",MO,1830,0,-94.5511362,39.125212
"Springfield, MO",MO,1830,0,-93.2913048,37.194152
"St. Louis, MO",MO,1830,4.977,-90.2445816,38.6356988
"Jackson, MS",MS,1830,0,-90.2128226,32.3158308
"Billings, MT",MT,1830,0,-108.5498909,45.7895184
"Cary, NC",NC,1830,0,-78.8140795,35.7821217
"Charlotte, NC",NC,1830,0,-80.8307389,35.2087069
"Durham, NC",NC,1830,0,-78.9056471,35.9809638
"Fayetteville, NC",NC,1830,2.868,-78.9802627,35.0851098
"Greensboro, NC",NC,1830,0,-79.8271079,36.0964835
"Raleigh, NC",NC,1830,1.7,-78.6414394,35.8302035
"Winston-Salem, NC",NC,1830,0,-80.2605782,36.1032616
"Fargo, ND",ND,1830,0,-96.8290052,46.8652063
"Lincoln, NE",NE,1830,0,-96.6803544,40.8089574
"Omaha, NE",NE,1830,0,-96.041926900000007,41.2646751
"Manchester, NH",NH,1830,0,-71.4438932,42.9846891
"Nashua, NH",NH,1830,0,-71.4905435,42.7490744
"Elizabeth, NJ",NJ,1830,3.455,-74.19353,40.6662613
"Jersey City, NJ",NJ,1830,0,-74.0647599,40.7114174
"Newark, NJ",NJ,1830,10.953,-74.1725735,40.7242204
"Paterson, NJ",NJ,1830,0,-74.1628255,40.9147462
"Albuquerque, NM",NM,1830,0,-106.6473884,35.1055517
"Henderson, NV",NV,1830,0,-115.0374619,36.0122334
"Las Vegas, NV",NV,1830,0,-115.2640448,36.2277116
"North Las Vegas, NV",NV,1830,0,-115.0892625,36.2829735
"Reno, NV",NV,1830,0,-119.7765384,39.4744867
"Albany, NY",NY,1830,24.209,-73.7983532,42.6657453
"Buffalo, NY",NY,1830,8.668,-78.8596862,42.8924919
"New York City, NY",NY,1830,202.589,-73.9385004,40.6642738
"Rochester, NY",NY,1830,9.207,-77.6168907,43.1699272
"Syracuse, NY",NY,1830,0,-76.1435544,43.0409981
"Yonkers, NY",NY,1830,0,-73.8674464,40.9458622
"Akron, OH",OH,1830,0,-81.5214295,41.0804559
"Cincinnati, OH",OH,1830,24.831,-84.5064465,39.1399019
"Cleveland, OH",OH,1830,1.1,-81.6794861,41.4781381
"Columbus, OH",OH,1830,2.4,-82.9850438,39.9847989
"Dayton, OH",OH,1830,2.95,-84.1996317,39.7773943
"Toledo, OH",OH,1830,0,-83.5818608,41.664071
"Lawton, OK",OK,1830,0,-98.4204004,34.6170477
"Norman, OK",OK,1830,0,-97.3453056,35.2405774
"Oklahoma City, OK",OK,1830,0,-97.5136565,35.4670795
"Tulsa, OK",OK,1830,0,-95.9023162,36.1279488
"Eugene, OR",OR,1830,0,-123.1162068,44.0567484
"Gresham, OR",OR,1830,0,-122.4416088,45.502319
"Portland, OR",OR,1830,0,-122.649971,45.5369506
"Salem, OR",OR,1830,0,-123.0231194,44.9236937
"Allentown, PA",PA,1830,1.5,-75.4781595,40.5939656
"Erie, PA",PA,1830,1.5,-80.0735032,42.1165941
"Philadelphia, PA",PA,1830,80.462,-75.1333459,40.0093755
"Pittsburgh, PA",PA,1830,12.568,-79.9765919,40.4397525
"Providence, RI",RI,1830,16.833,-71.4187795,41.823055600000004
"Charleston, SC",SC,1830,30.289,-79.9589267,32.8179219
"Columbia, SC",SC,1830,3.31,-80.8965664,34.0297833
"Sioux Falls, SD",SD,1830,0,-96.7319985,43.5383351
"Chattanooga, TN",TN,1830,0,-85.2470649,35.0664635
"Clarksville, TN",TN,1830,0,-87.3452162,36.5664303
"Knoxville, TN",TN,1830,0,-83.9464787,35.9708752
"Memphis, TN",TN,1830,0,-89.9784984,35.1035431
"Nashville, TN",TN,1830,5.566,-86.7850016,36.1718001
"Abilene, TX",TX,1830,0,-99.7381473,32.4545143
"Amarillo, TX",TX,1830,0,-101.8287459,35.1978395
"Arlington, TX",TX,1830,0,-97.1246912,32.7007082
"Austin, TX",TX,1830,0,-97.7559964,30.3071816
"Beaumont, TX",TX,1830,0,-94.1457737,30.0843427
"Brownsville, TX",TX,1830,0,-97.4538263,26.0183263
"Carrollton, TX",TX,1830,0,-96.8997702,32.9883599
"Corpus Christi, TX",TX,1830,0,-97.396259,27.804553
"Dallas, TX",TX,1830,0,-96.7655033,32.794176
"El Paso, TX",TX,1830,0,-106.426979,31.8483598
"Fort Worth, TX",TX,1830,0,-97.3463354,32.7795423
"Garland, TX",TX,1830,0,-96.6303571,32.9098261
"Grand Prairie, TX",TX,1830,0,-97.0209951,32.6841931
"Houston, TX",TX,1830,0,-95.3863425,29.7804724
"Irving, TX",TX,1830,0,-96.9700224,32.8577478
"Killeen, TX",TX,1830,0,-97.731952,31.0776691
"Laredo, TX",TX,1830,0,-99.4869309,27.5476811
"Lubbock, TX",TX,1830,0,-101.8866773,33.5664787
"Mcallen, TX",TX,1830,0,-98.2461453,26.2185125
"Mesquite, TX",TX,1830,0,-96.5924264,32.763903
"Midland, TX",TX,1830,0,-102.1096969,32.0299306
"Odessa, TX",TX,1830,0,-102.3434058,31.8803778
"Pasadena, TX",TX,1830,0,-95.1504783,29.6582634
"Plano, TX",TX,1830,0,-96.747944,33.0507687
"Richardson, TX",TX,1830,0,-96.7080688,32.9722914
"San Angelo, TX",TX,1830,0,-100.4518503,31.4389124
"San Antonio, TX",TX,1830,0,-98.5251419,29.4724026
"Waco, TX",TX,1830,0,-97.1860267,31.5601108
"Wichita Falls, TX",TX,1830,0,-98.525854,33.9066992
"Provo, UT",UT,1830,0,-111.6448069,40.2453301
"Salt Lake City, UT",UT,1830,0,-111.9314142,40.7785197
"Sandy, UT",UT,1830,0,-111.8522856,40.5715632
"West Valley City, UT",UT,1830,0,-112.0117586,40.6884927
"Alexandria, VA",VA,1830,8.2,-77.0820263,38.8183429
"Chesapeake, VA",VA,1830,0,-76.3017884,36.6793761
"Hampton, VA",VA,1830,0,-76.2971486,37.0480303
"Newport News, VA",VA,1830,0,-76.5217187,37.0759784
"Norfolk, VA",VA,1830,9.814,-76.2446413,36.9230149
"Portsmouth, VA",VA,1830,0,-76.3562686,36.8594298
"Richmond, VA",VA,1830,16.06,-77.4760085,37.531399
"Roanoke, VA",VA,1830,0,-79.9584716,37.2778301
"Virginia Beach, VA",VA,1830,0,-76.0240202,36.7793219
"Bellevue, WA",WA,1830,0,-122.1564895,47.5978391
"Everett, WA",WA,1830,0,-122.1742234,48.0032673
"Seattle, WA",WA,1830,0,-122.3508761,47.6204993
"Spokane, WA",WA,1830,0,-117.4165955,47.6735545
"Tacoma, WA",WA,1830,0,-122.4598318,47.2521991
"Vancouver, WA",WA,1830,0,-122.5965165,45.6372364
"Green Bay, WI",WI,1830,0,-87.9841686,44.5206763
"Kenosha, WI",WI,1830,0,-87.8736961,42.5847398
"Madison, WI",WI,1830,0,-89.4301208,43.0878055
"Milwaukee, WI",WI,1830,0,-87.9666952,43.0633484
"Arden-Arcade, CA",CA,1830,NA,NA,NA
"East Los Angeles, CA",CA,1830,NA,NA,NA
"Metairie, LA",LA,1830,NA,NA,NA
"Columbia, MD",MD,1830,NA,NA,NA
"Clinton, MI",MI,1830,NA,NA,NA
"Edison, NJ",NJ,1830,NA,NA,NA
"Toms River, NJ",NJ,1830,NA,NA,NA
"Paradise, NV",NV,1830,NA,NA,NA
"Spring Valley, NV",NV,1830,NA,NA,NA
"Sunrise Manor, NV",NV,1830,NA,NA,NA
"Arlington, VA",VA,1830,NA,NA,NA
"Anchorage, AK",AK,1840,0,-149.2743541,61.177549
"Birmingham, AL",AL,1840,0,-86.799047,33.5274441
"Huntsville, AL",AL,1840,0,-86.5389964,34.7842707
"Mobile, AL",AL,1840,12.672,-88.1002261,30.668426
"Montgomery, AL",AL,1840,2.2,-86.2685927,32.3462512
"Little Rock, AR",AR,1840,0,-92.358556,34.7254318
"Chandler, AZ",AZ,1840,0,-111.8549429,33.2828736
"Gilbert, AZ",AZ,1840,0,-111.7421907,33.3102088
"Glendale, AZ",AZ,1840,0,-112.1899006,33.5331113
"Mesa, AZ",AZ,1840,0,-111.7173787,33.4019259
"Peoria, AZ",AZ,1840,0,-112.3110998,33.7877083
"Phoenix, AZ",AZ,1840,0,-112.0879662,33.5721625
"Scottsdale, AZ",AZ,1840,0,-111.8236822,33.6687267
"Tempe, AZ",AZ,1840,0,-111.9317823,33.3884143
"Tucson, AZ",AZ,1840,0,-110.8710622,32.1542888
"Anaheim, CA",CA,1840,0,-117.7600707,33.8554971
"Antioch, CA",CA,1840,0,-121.7976176,37.977541
"Bakersfield, CA",CA,1840,0,-119.0182915,35.3212129
"Berkeley, CA",CA,1840,0,-122.2990661,37.8667016
"Burbank, CA",CA,1840,0,-118.3248656,34.1889857
"Carson, CA",CA,1840,0,-118.2495736,33.840367
"Chula Vista, CA",CA,1840,0,-117.0151695,32.6276701
"Compton, CA",CA,1840,0,-118.2273742,33.892614
"Concord, CA",CA,1840,0,-122.0015843,37.9721785
"Corona, CA",CA,1840,0,-117.5638573,33.862352
"Costa Mesa, CA",CA,1840,0,-117.9123358,33.6659055
"Daly City, CA",CA,1840,0,-122.4649783,37.7009406
"Downey, CA",CA,1840,0,-118.1308561,33.9382375
"El Cajon, CA",CA,1840,0,-116.9604818,32.801659
"El Monte, CA",CA,1840,0,-118.0291358,34.0746329
"Escondido, CA",CA,1840,0,-117.073223,33.1336477
"Fairfield, CA",CA,1840,0,-122.039719,38.256757
"Fontana, CA",CA,1840,0,-117.4626845,34.108793
"Fremont, CA",CA,1840,0,-121.9411173,37.4943734
"Fresno, CA",CA,1840,0,-119.794492,36.7826736
"Fullerton, CA",CA,1840,0,-117.9280246,33.8857143
"Garden Grove, CA",CA,1840,0,-117.9604719,33.7787816
"Glendale, CA",CA,1840,0,-118.2458301,34.1813929
"Hayward, CA",CA,1840,0,-122.1063408,37.6281392
"Huntington Beach, CA",CA,1840,0,-118.00933,33.6905687
"Inglewood, CA",CA,1840,0,-118.3442743,33.9560678
"Irvine, CA",CA,1840,0,-117.7712541,33.6783986
"Lancaster, CA",CA,1840,0,-118.1753054,34.693558
"Long Beach, CA",CA,1840,0,-118.1553273,33.8091018
"Los Angeles, CA",CA,1840,0,-118.4108248,34.0193936
"Mission Viejo, CA",CA,1840,0,-117.656471,33.6093352
"Modesto, CA",CA,1840,0,-120.9890523,37.6609092
"Moreno Valley, CA",CA,1840,0,-117.2056845,33.9232527
"Norwalk, CA",CA,1840,0,-118.0834464,33.9069288
"Oakland, CA",CA,1840,0,-122.2256401,37.7698573
"Oceanside, CA",CA,1840,0,-117.3062269,33.2245718
"Ontario, CA",CA,1840,0,-117.6087689,34.0395244
"Orange, CA",CA,1840,0,-117.8248761,33.8048434
"Oxnard, CA",CA,1840,0,-119.2046028,34.2023461
"Palmdale, CA",CA,1840,0,-118.1090011,34.5913162
"Pasadena, CA",CA,1840,0,-118.139593,34.160592
"Pomona, CA",CA,1840,0,-117.7612655,34.0585947
"Rancho Cucamonga, CA",CA,1840,0,-117.564207,34.1233151
"Rialto, CA",CA,1840,0,-117.3882874,34.1117839
"Richmond, CA",CA,1840,0,-122.3593535,37.9529744
"Riverside, CA",CA,1840,0,-117.3931675,33.9381433
"Sacramento, CA",CA,1840,0,-121.4686318,38.5665924
"Salinas, CA",CA,1840,0,-121.6337145,36.6901821
"San Bernardino, CA",CA,1840,0,-117.2953165,34.1392611
"San Diego, CA",CA,1840,0,-117.134993,32.8152995
"San Francisco, CA",CA,1840,0,-122.419338,37.780023
"San Jose, CA",CA,1840,0,-121.8193058,37.2968672
"San Mateo, CA",CA,1840,0,-122.3106003,37.5603104
"Santa Ana, CA",CA,1840,0,-117.8825931,33.736478
"Santa Barbara, CA",CA,1840,0,-119.7133561,34.398899
"Santa Clara, CA",CA,1840,0,-121.9679336,37.364613
"Santa Clarita, CA",CA,1840,0,-118.5047007,34.4048756
"Santa Rosa, CA",CA,1840,0,-122.7061362,38.4468158
"Simi Valley, CA",CA,1840,0,-118.7484575,34.2668875
"South Gate, CA",CA,1840,0,-118.1927614,33.9441585
"Stockton, CA",CA,1840,0,-121.3133043,37.9763417
"Sunnyvale, CA",CA,1840,0,-122.026323,37.3857838
"Thousand Oaks, CA",CA,1840,0,-118.874235,34.1932896
"Torrance, CA",CA,1840,0,-118.3414307,33.8349663
"Vacaville, CA",CA,1840,0,-121.969452,38.3573722
"Vallejo, CA",CA,1840,0,-122.2638801,38.1079111
"Ventura, CA",CA,1840,0,-119.257336,34.272907
"Visalia, CA",CA,1840,0,-119.3234086,36.3271538
"Vista, CA",CA,1840,0,-117.2386067,33.1895416
"West Covina, CA",CA,1840,0,-117.9099372,34.0559412
"Westminster, CA",CA,1840,0,-117.9937553,33.7521532
"Arvada, CO",CO,1840,0,-105.1066199,39.8097397
"Aurora, CO",CO,1840,0,-104.68974,39.6880021
"Boulder, CO",CO,1840,0,-105.2517397,40.027443
"Colorado Springs, CO",CO,1840,0,-104.760749,38.8672553
"Denver, CO",CO,1840,0,-104.8806251,39.7618487
"Fort Collins, CO",CO,1840,0,-105.0648327,40.5482164
"Lakewood, CO",CO,1840,0,-105.1175507,39.6989417
"Pueblo, CO",CO,1840,0,-104.6123784,38.2731471
"Westminster, CO",CO,1840,0,-105.0644262,39.8821898
"Bridgeport, CT",CT,1840,3.294,-73.1957339,41.1873858
"Hartford, CT",CT,1840,9.468,-72.6833394,41.7660453
"New Haven, CT",CT,1840,12.96,-72.924953,41.3108088
"Stamford, CT",CT,1840,0,-73.5460279,41.0798566
"Waterbury, CT",CT,1840,0,-73.0366845,41.5585001
"Washington, DC",DC,1840,23.364,-77.0170942,38.9041485
"Cape Coral, FL",FL,1840,0,-81.9973306,26.6431192
"Clearwater, FL",FL,1840,0,-82.7662648,27.9794747
"Coral Springs, FL",FL,1840,0,-80.2592915,26.2707826
"Fort Lauderdale, FL",FL,1840,0,-80.143896,26.141305
"Gainesville, FL",FL,1840,0,-82.345878,29.6788314
"Hialeah, FL",FL,1840,0,-80.302865,25.8699408
"Hollywood, FL",FL,1840,0,-80.1645743,26.0311054
"Jacksonville, FL",FL,1840,0,-81.6613021,30.3370193
"Miami, FL",FL,1840,0,-80.2086152,25.775163
"Miami Beach, FL",FL,1840,0,-80.1397207,25.8152651
"Orlando, FL",FL,1840,0,-81.2987497,28.4158857
"Pembroke Pines, FL",FL,1840,0,-80.3403962,26.0212389
"Port St. Lucie, FL",FL,1840,0,-80.3837622,27.2809508
"St. Petersburg, FL",FL,1840,0,-82.644055,27.7619755
"Tallahassee, FL",FL,1840,0,-84.2534191,30.4551091
"Tampa, FL",FL,1840,0,-82.4796734,27.9700861
"Athens, GA",GA,1840,0,-83.3700882,33.9495967
"Atlanta, GA",GA,1840,0,-84.4226745,33.7629088
"Augusta, GA",GA,1840,6.403,-82.0734219,33.3655309
"Columbus, GA",GA,1840,3.114,-84.874946,32.510197
"Macon, GA",GA,1840,3.927,-83.6489181,32.8309533
"Savannah, GA",GA,1840,11.214,-81.1535567,32.0025121
"Honolulu, HI",HI,1840,0,-157.8453146,21.3258516
"Cedar Rapids, IA",IA,1840,0,-91.6777599,41.9670481
"Davenport, IA",IA,1840,0,-90.6039968,41.5541036
"Des Moines, IA",IA,1840,0,-93.616708,41.5739461
"Boise, ID",ID,1840,0,-116.2310843,43.5984881
"Aurora, IL",IL,1840,0,-88.290099,41.763455
"Chicago, IL",IL,1840,4.47,-87.6818441,41.8375511
"Elgin, IL",IL,1840,0,-88.3217094,42.0396386
"Joliet, IL",IL,1840,2.558,-88.1583542,41.5180664
"Naperville, IL",IL,1840,0,-88.162019,41.7491725
"Peoria, IL",IL,1840,1.5,-89.6170968,40.7523087
"Rockford, IL",IL,1840,0,-89.0628271,42.2633938
"Springfield, IL",IL,1840,2.579,-89.6708323,39.7639077
"Waukegan, IL",IL,1840,0,-87.8708984,42.3694469
"Evansville, IN",IN,1840,0,-87.534703,37.9877339
"Fort Wayne, IN",IN,1840,0,-85.14388,41.088172900000004
"Gary, IN",IN,1840,0,-87.3448535,41.5958827
"Indianapolis, IN",IN,1840,2.692,-86.1459355,39.7766644
"South Bend, IN",IN,1840,0,-86.269043,41.6768497
"Kansas City, KS",KS,1840,0,-94.7417813,39.1225389
"Olathe, KS",KS,1840,0,-94.8188482,38.8842791
"Overland Park, KS",KS,1840,0,-94.6905839,38.8890422
"Topeka, KS",KS,1840,0,-95.6948257,39.03617
"Wichita, KS",KS,1840,0,-97.3426776,37.6906938
"Lexington, KY",KY,1840,6.997,-84.4584429,38.0401572
"Louisville, KY",KY,1840,21.21,-85.6667077,38.1780769
"Baton Rouge, LA",LA,1840,2.3,-91.1258993,30.4484535
"Lafayette, LA",LA,1840,3.207,-92.0313943,30.2115733
"New Orleans, LA",LA,1840,102.193,-89.9390074,30.0686361
"Shreveport, LA",LA,1840,0,-93.7926845,32.4670204
"Boston, MA",MA,1840,93.383,-71.0201725,42.33196
"Brockton, MA",MA,1840,0,-71.0246378,42.082543
"Cambridge, MA",MA,1840,8.409,-71.1182745,42.3759674
"Fall River, MA",MA,1840,6.738,-71.0941619,41.7253505
"Lowell, MA",MA,1840,20.796,-71.3221073,42.638893
"Lynn, MA",MA,1840,9.367,-70.9621851,42.4748618
"New Bedford, MA",MA,1840,12.087,-70.9379126,41.6613028
"Quincy, MA",MA,1840,0,-71.0093968,42.2609151
"Springfield, MA",MA,1840,10.985,-72.5399783,42.115454
"Worcester, MA",MA,1840,7.497,-71.8077831,42.2694781
"Baltimore, MD",MD,1840,102.313,-76.6105159,39.3002135
"Ann Arbor, MI",MI,1840,0,-83.7313328,42.2756414
"Dearborn, MI",MI,1840,0,-83.2114879,42.3130574
"Detroit, MI",MI,1840,9.102,-83.1022365,42.3830375
"Flint, MI",MI,1840,0,-83.6919833,43.0244249
"Grand Rapids, MI",MI,1840,0,-85.6555701,42.961156
"Lansing, MI",MI,1840,0,-84.5562219,42.7097871
"Livonia, MI",MI,1840,0,-83.3723195,42.3971831
"Sterling Heights, MI",MI,1840,0,-83.0303162,42.5812062
"Warren, MI",MI,1840,0,-83.0250007,42.4929044
"Westland, MI",MI,1840,0,-83.3807781,42.3191725
"Duluth, MN",MN,1840,0,-92.1187097,46.783229
"Minneapolis, MN",MN,1840,0,-93.2682835,44.9633235
"St. Paul, MN",MN,1840,0,-93.1038552,44.9488695
"Independence, MO",MO,1840,0,-94.3512918,39.0852578
"Kansas City, MO",MO,1840,0,-94.5511362,39.125212
"Springfield, MO",MO,1840,0,-93.2913048,37.194152
"St. Louis, MO",MO,1840,16.469,-90.2445816,38.6356988
"Jackson, MS",MS,1840,0,-90.2128226,32.3158308
"Billings, MT",MT,1840,0,-108.5498909,45.7895184
"Cary, NC",NC,1840,0,-78.8140795,35.7821217
"Charlotte, NC",NC,1840,0,-80.8307389,35.2087069
"Durham, NC",NC,1840,0,-78.9056471,35.9809638
"Fayetteville, NC",NC,1840,4.285,-78.9802627,35.0851098
"Greensboro, NC",NC,1840,0,-79.8271079,36.0964835
"Raleigh, NC",NC,1840,2.2,-78.6414394,35.8302035
"Winston-Salem, NC",NC,1840,0,-80.2605782,36.1032616
"Fargo, ND",ND,1840,0,-96.8290052,46.8652063
"Lincoln, NE",NE,1840,0,-96.6803544,40.8089574
"Omaha, NE",NE,1840,0,-96.041926900000007,41.2646751
"Manchester, NH",NH,1840,3.235,-71.4438932,42.9846891
"Nashua, NH",NH,1840,6.054,-71.4905435,42.7490744
"Elizabeth, NJ",NJ,1840,4.184,-74.19353,40.6662613
"Jersey City, NJ",NJ,1840,3.072,-74.0647599,40.7114174
"Newark, NJ",NJ,1840,17.29,-74.1725735,40.7242204
"Paterson, NJ",NJ,1840,7.596,-74.1628255,40.9147462
"Albuquerque, NM",NM,1840,0,-106.6473884,35.1055517
"Henderson, NV",NV,1840,0,-115.0374619,36.0122334
"Las Vegas, NV",NV,1840,0,-115.2640448,36.2277116
"North Las Vegas, NV",NV,1840,0,-115.0892625,36.2829735
"Reno, NV",NV,1840,0,-119.7765384,39.4744867
"Albany, NY",NY,1840,33.721,-73.7983532,42.6657453
"Buffalo, NY",NY,1840,18.213,-78.8596862,42.8924919
"New York City, NY",NY,1840,312.71,-73.9385004,40.6642738
"Rochester, NY",NY,1840,20.191,-77.6168907,43.1699272
"Syracuse, NY",NY,1840,0,-76.1435544,43.0409981
"Yonkers, NY",NY,1840,0,-73.8674464,40.9458622
"Akron, OH",OH,1840,0,-81.5214295,41.0804559
"Cincinnati, OH",OH,1840,46.338,-84.5064465,39.1399019
"Cleveland, OH",OH,1840,6.071,-81.6794861,41.4781381
"Columbus, OH",OH,1840,6.048,-82.9850438,39.9847989
"Dayton, OH",OH,1840,6.067,-84.1996317,39.7773943
"Toledo, OH",OH,1840,1.2,-83.5818608,41.664071
"Lawton, OK",OK,1840,0,-98.4204004,34.6170477
"Norman, OK",OK,1840,0,-97.3453056,35.2405774
"Oklahoma City, OK",OK,1840,0,-97.5136565,35.4670795
"Tulsa, OK",OK,1840,0,-95.9023162,36.1279488
"Eugene, OR",OR,1840,0,-123.1162068,44.0567484
"Gresham, OR",OR,1840,0,-122.4416088,45.502319
"Portland, OR",OR,1840,0,-122.649971,45.5369506
"Salem, OR",OR,1840,0,-123.0231194,44.9236937
"Allentown, PA",PA,1840,2.5,-75.4781595,40.5939656
"Erie, PA",PA,1840,3.412,-80.0735032,42.1165941
"Philadelphia, PA",PA,1840,93.665,-75.1333459,40.0093755
"Pittsburgh, PA",PA,1840,21.115,-79.9765919,40.4397525
"Providence, RI",RI,1840,23.171,-71.4187795,41.823055600000004
"Charleston, SC",SC,1840,29.261,-79.9589267,32.8179219
"Columbia, SC",SC,1840,4.34,-80.8965664,34.0297833
"Sioux Falls, SD",SD,1840,0,-96.7319985,43.5383351
"Chattanooga, TN",TN,1840,0,-85.2470649,35.0664635
"Clarksville, TN",TN,1840,0,-87.3452162,36.5664303
"Knoxville, TN",TN,1840,0,-83.9464787,35.9708752
"Memphis, TN",TN,1840,0,-89.9784984,35.1035431
"Nashville, TN",TN,1840,6.929,-86.7850016,36.1718001
"Abilene, TX",TX,1840,0,-99.7381473,32.4545143
"Amarillo, TX",TX,1840,0,-101.8287459,35.1978395
"Arlington, TX",TX,1840,0,-97.1246912,32.7007082
"Austin, TX",TX,1840,0,-97.7559964,30.3071816
"Beaumont, TX",TX,1840,0,-94.1457737,30.0843427
"Brownsville, TX",TX,1840,0,-97.4538263,26.0183263
"Carrollton, TX",TX,1840,0,-96.8997702,32.9883599
"Corpus Christi, TX",TX,1840,0,-97.396259,27.804553
"Dallas, TX",TX,1840,0,-96.7655033,32.794176
"El Paso, TX",TX,1840,0,-106.426979,31.8483598
"Fort Worth, TX",TX,1840,0,-97.3463354,32.7795423
"Garland, TX",TX,1840,0,-96.6303571,32.9098261
"Grand Prairie, TX",TX,1840,0,-97.0209951,32.6841931
"Houston, TX",TX,1840,0,-95.3863425,29.7804724
"Irving, TX",TX,1840,0,-96.9700224,32.8577478
"Killeen, TX",TX,1840,0,-97.731952,31.0776691
"Laredo, TX",TX,1840,0,-99.4869309,27.5476811
"Lubbock, TX",TX,1840,0,-101.8866773,33.5664787
"Mcallen, TX",TX,1840,0,-98.2461453,26.2185125
"Mesquite, TX",TX,1840,0,-96.5924264,32.763903
"Midland, TX",TX,1840,0,-102.1096969,32.0299306
"Odessa, TX",TX,1840,0,-102.3434058,31.8803778
"Pasadena, TX",TX,1840,0,-95.1504783,29.6582634
"Plano, TX",TX,1840,0,-96.747944,33.0507687
"Richardson, TX",TX,1840,0,-96.7080688,32.9722914
"San Angelo, TX",TX,1840,0,-100.4518503,31.4389124
"San Antonio, TX",TX,1840,0,-98.5251419,29.4724026
"Waco, TX",TX,1840,0,-97.1860267,31.5601108
"Wichita Falls, TX",TX,1840,0,-98.525854,33.9066992
"Provo, UT",UT,1840,0,-111.6448069,40.2453301
"Salt Lake City, UT",UT,1840,0,-111.9314142,40.7785197
"Sandy, UT",UT,1840,0,-111.8522856,40.5715632
"West Valley City, UT",UT,1840,0,-112.0117586,40.6884927
"Alexandria, VA",VA,1840,8.5,-77.0820263,38.8183429
"Chesapeake, VA",VA,1840,0,-76.3017884,36.6793761
"Hampton, VA",VA,1840,0,-76.2971486,37.0480303
"Newport News, VA",VA,1840,0,-76.5217187,37.0759784
"Norfolk, VA",VA,1840,10.92,-76.2446413,36.9230149
"Portsmouth, VA",VA,1840,6.477,-76.3562686,36.8594298
"Richmond, VA",VA,1840,20.153,-77.4760085,37.531399
"Roanoke, VA",VA,1840,0,-79.9584716,37.2778301
"Virginia Beach, VA",VA,1840,0,-76.0240202,36.7793219
"Bellevue, WA",WA,1840,0,-122.1564895,47.5978391
"Everett, WA",WA,1840,0,-122.1742234,48.0032673
"Seattle, WA",WA,1840,0,-122.3508761,47.6204993
"Spokane, WA",WA,1840,0,-117.4165955,47.6735545
"Tacoma, WA",WA,1840,0,-122.4598318,47.2521991
"Vancouver, WA",WA,1840,0,-122.5965165,45.6372364
"Green Bay, WI",WI,1840,0,-87.9841686,44.5206763
"Kenosha, WI",WI,1840,0,-87.8736961,42.5847398
"Madison, WI",WI,1840,1.5,-89.4301208,43.0878055
"Milwaukee, WI",WI,1840,1.7,-87.9666952,43.0633484
"Arden-Arcade, CA",CA,1840,NA,NA,NA
"East Los Angeles, CA",CA,1840,NA,NA,NA
"Metairie, LA",LA,1840,NA,NA,NA
"Columbia, MD",MD,1840,NA,NA,NA
"Clinton, MI",MI,1840,NA,NA,NA
"Edison, NJ",NJ,1840,NA,NA,NA
"Toms River, NJ",NJ,1840,NA,NA,NA
"Paradise, NV",NV,1840,NA,NA,NA
"Spring Valley, NV",NV,1840,NA,NA,NA
"Sunrise Manor, NV",NV,1840,NA,NA,NA
"Arlington, VA",VA,1840,NA,NA,NA
"Anchorage, AK",AK,1850,0,-149.2743541,61.177549
"Birmingham, AL",AL,1850,0,-86.799047,33.5274441
"Huntsville, AL",AL,1850,2.863,-86.5389964,34.7842707
"Mobile, AL",AL,1850,20.515,-88.1002261,30.668426
"Montgomery, AL",AL,1850,8.728,-86.2685927,32.3462512
"Little Rock, AR",AR,1850,2.2,-92.358556,34.7254318
"Chandler, AZ",AZ,1850,0,-111.8549429,33.2828736
"Gilbert, AZ",AZ,1850,0,-111.7421907,33.3102088
"Glendale, AZ",AZ,1850,0,-112.1899006,33.5331113
"Mesa, AZ",AZ,1850,0,-111.7173787,33.4019259
"Peoria, AZ",AZ,1850,0,-112.3110998,33.7877083
"Phoenix, AZ",AZ,1850,0,-112.0879662,33.5721625
"Scottsdale, AZ",AZ,1850,0,-111.8236822,33.6687267
"Tempe, AZ",AZ,1850,0,-111.9317823,33.3884143
"Tucson, AZ",AZ,1850,0,-110.8710622,32.1542888
"Anaheim, CA",CA,1850,0,-117.7600707,33.8554971
"Antioch, CA",CA,1850,0,-121.7976176,37.977541
"Bakersfield, CA",CA,1850,0,-119.0182915,35.3212129
"Berkeley, CA",CA,1850,0,-122.2990661,37.8667016
"Burbank, CA",CA,1850,0,-118.3248656,34.1889857
"Carson, CA",CA,1850,0,-118.2495736,33.840367
"Chula Vista, CA",CA,1850,0,-117.0151695,32.6276701
"Compton, CA",CA,1850,0,-118.2273742,33.892614
"Concord, CA",CA,1850,0,-122.0015843,37.9721785
"Corona, CA",CA,1850,0,-117.5638573,33.862352
"Costa Mesa, CA",CA,1850,0,-117.9123358,33.6659055
"Daly City, CA",CA,1850,0,-122.4649783,37.7009406
"Downey, CA",CA,1850,0,-118.1308561,33.9382375
"El Cajon, CA",CA,1850,0,-116.9604818,32.801659
"El Monte, CA",CA,1850,0,-118.0291358,34.0746329
"Escondido, CA",CA,1850,0,-117.073223,33.1336477
"Fairfield, CA",CA,1850,0,-122.039719,38.256757
"Fontana, CA",CA,1850,0,-117.4626845,34.108793
"Fremont, CA",CA,1850,0,-121.9411173,37.4943734
"Fresno, CA",CA,1850,0,-119.794492,36.7826736
"Fullerton, CA",CA,1850,0,-117.9280246,33.8857143
"Garden Grove, CA",CA,1850,0,-117.9604719,33.7787816
"Glendale, CA",CA,1850,0,-118.2458301,34.1813929
"Hayward, CA",CA,1850,0,-122.1063408,37.6281392
"Huntington Beach, CA",CA,1850,0,-118.00933,33.6905687
"Inglewood, CA",CA,1850,0,-118.3442743,33.9560678
"Irvine, CA",CA,1850,0,-117.7712541,33.6783986
"Lancaster, CA",CA,1850,0,-118.1753054,34.693558
"Long Beach, CA",CA,1850,0,-118.1553273,33.8091018
"Los Angeles, CA",CA,1850,1.61,-118.4108248,34.0193936
"Mission Viejo, CA",CA,1850,0,-117.656471,33.6093352
"Modesto, CA",CA,1850,0,-120.9890523,37.6609092
"Moreno Valley, CA",CA,1850,0,-117.2056845,33.9232527
"Norwalk, CA",CA,1850,0,-118.0834464,33.9069288
"Oakland, CA",CA,1850,0,-122.2256401,37.7698573
"Oceanside, CA",CA,1850,0,-117.3062269,33.2245718
"Ontario, CA",CA,1850,0,-117.6087689,34.0395244
"Orange, CA",CA,1850,0,-117.8248761,33.8048434
"Oxnard, CA",CA,1850,0,-119.2046028,34.2023461
"Palmdale, CA",CA,1850,0,-118.1090011,34.5913162
"Pasadena, CA",CA,1850,0,-118.139593,34.160592
"Pomona, CA",CA,1850,0,-117.7612655,34.0585947
"Rancho Cucamonga, CA",CA,1850,0,-117.564207,34.1233151
"Rialto, CA",CA,1850,0,-117.3882874,34.1117839
"Richmond, CA",CA,1850,0,-122.3593535,37.9529744
"Riverside, CA",CA,1850,0,-117.3931675,33.9381433
"Sacramento, CA",CA,1850,6.82,-121.4686318,38.5665924
"Salinas, CA",CA,1850,0,-121.6337145,36.6901821
"San Bernardino, CA",CA,1850,0,-117.2953165,34.1392611
"San Diego, CA",CA,1850,0,-117.134993,32.8152995
"San Francisco, CA",CA,1850,30,-122.419338,37.780023
"San Jose, CA",CA,1850,0,-121.8193058,37.2968672
"San Mateo, CA",CA,1850,0,-122.3106003,37.5603104
"Santa Ana, CA",CA,1850,0,-117.8825931,33.736478
"Santa Barbara, CA",CA,1850,0,-119.7133561,34.398899
"Santa Clara, CA",CA,1850,0,-121.9679336,37.364613
"Santa Clarita, CA",CA,1850,0,-118.5047007,34.4048756
"Santa Rosa, CA",CA,1850,0,-122.7061362,38.4468158
"Simi Valley, CA",CA,1850,0,-118.7484575,34.2668875
"South Gate, CA",CA,1850,0,-118.1927614,33.9441585
"Stockton, CA",CA,1850,0,-121.3133043,37.9763417
"Sunnyvale, CA",CA,1850,0,-122.026323,37.3857838
"Thousand Oaks, CA",CA,1850,0,-118.874235,34.1932896
"Torrance, CA",CA,1850,0,-118.3414307,33.8349663
"Vacaville, CA",CA,1850,0,-121.969452,38.3573722
"Vallejo, CA",CA,1850,0,-122.2638801,38.1079111
"Ventura, CA",CA,1850,0,-119.257336,34.272907
"Visalia, CA",CA,1850,0,-119.3234086,36.3271538
"Vista, CA",CA,1850,0,-117.2386067,33.1895416
"West Covina, CA",CA,1850,0,-117.9099372,34.0559412
"Westminster, CA",CA,1850,0,-117.9937553,33.7521532
"Arvada, CO",CO,1850,0,-105.1066199,39.8097397
"Aurora, CO",CO,1850,0,-104.68974,39.6880021
"Boulder, CO",CO,1850,0,-105.2517397,40.027443
"Colorado Springs, CO",CO,1850,0,-104.760749,38.8672553
"Denver, CO",CO,1850,0,-104.8806251,39.7618487
"Fort Collins, CO",CO,1850,0,-105.0648327,40.5482164
"Lakewood, CO",CO,1850,0,-105.1175507,39.6989417
"Pueblo, CO",CO,1850,0,-104.6123784,38.2731471
"Westminster, CO",CO,1850,0,-105.0644262,39.8821898
"Bridgeport, CT",CT,1850,6.08,-73.1957339,41.1873858
"Hartford, CT",CT,1850,13.555,-72.6833394,41.7660453
"New Haven, CT",CT,1850,20.345,-72.924953,41.3108088
"Stamford, CT",CT,1850,0,-73.5460279,41.0798566
"Waterbury, CT",CT,1850,0,-73.0366845,41.5585001
"Washington, DC",DC,1850,40.001,-77.0170942,38.9041485
"Cape Coral, FL",FL,1850,0,-81.9973306,26.6431192
"Clearwater, FL",FL,1850,0,-82.7662648,27.9794747
"Coral Springs, FL",FL,1850,0,-80.2592915,26.2707826
"Fort Lauderdale, FL",FL,1850,0,-80.143896,26.141305
"Gainesville, FL",FL,1850,0,-82.345878,29.6788314
"Hialeah, FL",FL,1850,0,-80.302865,25.8699408
"Hollywood, FL",FL,1850,0,-80.1645743,26.0311054
"Jacksonville, FL",FL,1850,1,-81.6613021,30.3370193
"Miami, FL",FL,1850,0,-80.2086152,25.775163
"Miami Beach, FL",FL,1850,0,-80.1397207,25.8152651
"Orlando, FL",FL,1850,0,-81.2987497,28.4158857
"Pembroke Pines, FL",FL,1850,0,-80.3403962,26.0212389
"Port St. Lucie, FL",FL,1850,0,-80.3837622,27.2809508
"St. Petersburg, FL",FL,1850,0,-82.644055,27.7619755
"Tallahassee, FL",FL,1850,0,-84.2534191,30.4551091
"Tampa, FL",FL,1850,0,-82.4796734,27.9700861
"Athens, GA",GA,1850,0,-83.3700882,33.9495967
"Atlanta, GA",GA,1850,2.572,-84.4226745,33.7629088
"Augusta, GA",GA,1850,9.448,-82.0734219,33.3655309
"Columbus, GA",GA,1850,5.942,-84.874946,32.510197
"Macon, GA",GA,1850,5.72,-83.6489181,32.8309533
"Savannah, GA",GA,1850,15.312,-81.1535567,32.0025121
"Honolulu, HI",HI,1850,0,-157.8453146,21.3258516
"Cedar Rapids, IA",IA,1850,0,-91.6777599,41.9670481
"Davenport, IA",IA,1850,0,-90.6039968,41.5541036
"Des Moines, IA",IA,1850,0,-93.616708,41.5739461
"Boise, ID",ID,1850,0,-116.2310843,43.5984881
"Aurora, IL",IL,1850,0,-88.290099,41.763455
"Chicago, IL",IL,1850,29.963,-87.6818441,41.8375511
"Elgin, IL",IL,1850,0,-88.3217094,42.0396386
"Joliet, IL",IL,1850,2.659,-88.1583542,41.5180664
"Naperville, IL",IL,1850,0,-88.162019,41.7491725
"Peoria, IL",IL,1850,5.095,-89.6170968,40.7523087
"Rockford, IL",IL,1850,0,-89.0628271,42.2633938
"Springfield, IL",IL,1850,4.533,-89.6708323,39.7639077
"Waukegan, IL",IL,1850,0,-87.8708984,42.3694469
"Evansville, IN",IN,1850,3.235,-87.534703,37.9877339
"Fort Wayne, IN",IN,1850,4.282,-85.14388,41.088172900000004
"Gary, IN",IN,1850,0,-87.3448535,41.5958827
"Indianapolis, IN",IN,1850,8.091,-86.1459355,39.7766644
"South Bend, IN",IN,1850,1.7,-86.269043,41.6768497
"Kansas City, KS",KS,1850,0,-94.7417813,39.1225389
"Olathe, KS",KS,1850,0,-94.8188482,38.8842791
"Overland Park, KS",KS,1850,0,-94.6905839,38.8890422
"Topeka, KS",KS,1850,0,-95.6948257,39.03617
"Wichita, KS",KS,1850,0,-97.3426776,37.6906938
"Lexington, KY",KY,1850,8.159,-84.4584429,38.0401572
"Louisville, KY",KY,1850,43.194,-85.6667077,38.1780769
"Baton Rouge, LA",LA,1850,3.905,-91.1258993,30.4484535
"Lafayette, LA",LA,1850,14.19,-92.0313943,30.2115733
"New Orleans, LA",LA,1850,116.375,-89.9390074,30.0686361
"Shreveport, LA",LA,1850,1.7,-93.7926845,32.4670204
"Boston, MA",MA,1850,136.881,-71.0201725,42.33196
"Brockton, MA",MA,1850,0,-71.0246378,42.082543
"Cambridge, MA",MA,1850,15.215,-71.1182745,42.3759674
"Fall River, MA",MA,1850,11.524,-71.0941619,41.7253505
"Lowell, MA",MA,1850,33.383,-71.3221073,42.638893
"Lynn, MA",MA,1850,14.257,-70.9621851,42.4748618
"New Bedford, MA",MA,1850,16.443,-70.9379126,41.6613028
"Quincy, MA",MA,1850,5.017,-71.0093968,42.2609151
"Springfield, MA",MA,1850,11.766,-72.5399783,42.115454
"Worcester, MA",MA,1850,17.049,-71.8077831,42.2694781
"Baltimore, MD",MD,1850,169.054,-76.6105159,39.3002135
"Ann Arbor, MI",MI,1850,0,-83.7313328,42.2756414
"Dearborn, MI",MI,1850,0,-83.2114879,42.3130574
"Detroit, MI",MI,1850,21.019,-83.1022365,42.3830375
"Flint, MI",MI,1850,0,-83.6919833,43.0244249
"Grand Rapids, MI",MI,1850,2.686,-85.6555701,42.961156
"Lansing, MI",MI,1850,0,-84.5562219,42.7097871
"Livonia, MI",MI,1850,0,-83.3723195,42.3971831
"Sterling Heights, MI",MI,1850,0,-83.0303162,42.5812062
"Warren, MI",MI,1850,0,-83.0250007,42.4929044
"Westland, MI",MI,1850,0,-83.3807781,42.3191725
"Duluth, MN",MN,1850,0,-92.1187097,46.783229
"Minneapolis, MN",MN,1850,0,-93.2682835,44.9633235
"St. Paul, MN",MN,1850,1.1,-93.1038552,44.9488695
"Independence, MO",MO,1850,0,-94.3512918,39.0852578
"Kansas City, MO",MO,1850,0,-94.5511362,39.125212
"Springfield, MO",MO,1850,0.4,-93.2913048,37.194152
"St. Louis, MO",MO,1850,77.86,-90.2445816,38.6356988
"Jackson, MS",MS,1850,1.9,-90.2128226,32.3158308
"Billings, MT",MT,1850,0,-108.5498909,45.7895184
"Cary, NC",NC,1850,0,-78.8140795,35.7821217
"Charlotte, NC",NC,1850,1.1,-80.8307389,35.2087069
"Durham, NC",NC,1850,0,-78.9056471,35.9809638
"Fayetteville, NC",NC,1850,4.646,-78.9802627,35.0851098
"Greensboro, NC",NC,1850,0,-79.8271079,36.0964835
"Raleigh, NC",NC,1850,4.518,-78.6414394,35.8302035
"Winston-Salem, NC",NC,1850,0,-80.2605782,36.1032616
"Fargo, ND",ND,1850,0,-96.8290052,46.8652063
"Lincoln, NE",NE,1850,0,-96.6803544,40.8089574
"Omaha, NE",NE,1850,0,-96.041926900000007,41.2646751
"Manchester, NH",NH,1850,13.932,-71.4438932,42.9846891
"Nashua, NH",NH,1850,5.82,-71.4905435,42.7490744
"Elizabeth, NJ",NJ,1850,5.583,-74.19353,40.6662613
"Jersey City, NJ",NJ,1850,6.856,-74.0647599,40.7114174
"Newark, NJ",NJ,1850,38.894,-74.1725735,40.7242204
"Paterson, NJ",NJ,1850,11.334,-74.1628255,40.9147462
"Albuquerque, NM",NM,1850,0,-106.6473884,35.1055517
"Henderson, NV",NV,1850,0,-115.0374619,36.0122334
"Las Vegas, NV",NV,1850,0,-115.2640448,36.2277116
"North Las Vegas, NV",NV,1850,0,-115.0892625,36.2829735
"Reno, NV",NV,1850,0,-119.7765384,39.4744867
"Albany, NY",NY,1850,50.763,-73.7983532,42.6657453
"Buffalo, NY",NY,1850,42.261,-78.8596862,42.8924919
"New York City, NY",NY,1850,515.547,-73.9385004,40.6642738
"Rochester, NY",NY,1850,36.403,-77.6168907,43.1699272
"Syracuse, NY",NY,1850,22.271,-76.1435544,43.0409981
"Yonkers, NY",NY,1850,0,-73.8674464,40.9458622
"Akron, OH",OH,1850,3.266,-81.5214295,41.0804559
"Cincinnati, OH",OH,1850,115.435,-84.5064465,39.1399019
"Cleveland, OH",OH,1850,17.034,-81.6794861,41.4781381
"Columbus, OH",OH,1850,17.882,-82.9850438,39.9847989
"Dayton, OH",OH,1850,10.977,-84.1996317,39.7773943
"Toledo, OH",OH,1850,3.829,-83.5818608,41.664071
"Lawton, OK",OK,1850,0,-98.4204004,34.6170477
"Norman, OK",OK,1850,0,-97.3453056,35.2405774
"Oklahoma City, OK",OK,1850,0,-97.5136565,35.4670795
"Tulsa, OK",OK,1850,0,-95.9023162,36.1279488
"Eugene, OR",OR,1850,0,-123.1162068,44.0567484
"Gresham, OR",OR,1850,0,-122.4416088,45.502319
"Portland, OR",OR,1850,NA,-122.649971,45.5369506
"Salem, OR",OR,1850,0,-123.0231194,44.9236937
"Allentown, PA",PA,1850,3.779,-75.4781595,40.5939656
"Erie, PA",PA,1850,5.858,-80.0735032,42.1165941
"Philadelphia, PA",PA,1850,121.376,-75.1333459,40.0093755
"Pittsburgh, PA",PA,1850,46.601,-79.9765919,40.4397525
"Providence, RI",RI,1850,41.513,-71.4187795,41.823055600000004
"Charleston, SC",SC,1850,42.985,-79.9589267,32.8179219
"Columbia, SC",SC,1850,6.06,-80.8965664,34.0297833
"Sioux Falls, SD",SD,1850,0,-96.7319985,43.5383351
"Chattanooga, TN",TN,1850,0,-85.2470649,35.0664635
"Clarksville, TN",TN,1850,0,-87.3452162,36.5664303
"Knoxville, TN",TN,1850,2.1,-83.9464787,35.9708752
"Memphis, TN",TN,1850,8.841,-89.9784984,35.1035431
"Nashville, TN",TN,1850,10.165,-86.7850016,36.1718001
"Abilene, TX",TX,1850,0,-99.7381473,32.4545143
"Amarillo, TX",TX,1850,0,-101.8287459,35.1978395
"Arlington, TX",TX,1850,0,-97.1246912,32.7007082
"Austin, TX",TX,1850,0.6,-97.7559964,30.3071816
"Beaumont, TX",TX,1850,0,-94.1457737,30.0843427
"Brownsville, TX",TX,1850,0,-97.4538263,26.0183263
"Carrollton, TX",TX,1850,0,-96.8997702,32.9883599
